,YEAR,MONTH,DAY,DAY_OF_WEEK,AIRLINE_x,AIRLINE,FLIGHT_NUMBER,TAIL_NUMBER,ORIGIN_AIRPORT,DESTINATION_AIRPORT,SCHEDULED_DEPARTURE,DEPARTURE_TIME,DEPARTURE_DELAY,TAXI_OUT,WHEELS_OFF,SCHEDULED_TIME,ELAPSED_TIME,AIR_TIME,DISTANCE,WHEELS_ON,TAXI_IN,SCHEDULED_ARRIVAL,ARRIVAL_TIME,ARRIVAL_DELAY,DIVERTED,CANCELLED,CANCELLATION_REASON,AIR_SYSTEM_DELAY,SECURITY_DELAY,AIRLINE_DELAY,LATE_AIRCRAFT_DELAY,WEATHER_DELAY,DELAY_OR_NOT,AIRPORT_x,CITY_x,STATE_x,LATITUDE_x,LONGITUDE_x,AIRPORT_y,CITY_y,STATE_y,LATITUDE_y,LONGITUDE_y,Percentage Delayed,Departure Delay Mean,Arrival Delay Mean,DATE
798816,2015,2,27,5,OO,Skywest Airlines Inc.,4673,N8932C,SLC,BUR,19:56:00,19:50:00,-6.0,18.0,20:08:00,124.0,113.0,93.0,574,20:41:00,2.0,21:00:00,20:43:00,-17.0,0,0,,0.0,0.0,0.0,0.0,0.0,False,Salt Lake City International Airport,Salt Lake City,UT,40.78839,-111.97777,Bob Hope Airport (Hollywood Burbank Airport),Burbank,CA,34.20062,-118.3585,31.977162843328877,22.10020910406949,25.83927939520669,2015-02-27
1340681,2015,8,1,6,B6,JetBlue Airways,534,N593JB,SFO,BOS,10:28:00,10:27:00,-1.0,10.0,10:37:00,340.0,309.0,295.0,2704,18:32:00,4.0,19:08:00,18:36:00,-32.0,0,0,,0.0,0.0,0.0,0.0,0.0,False,San Francisco International Airport,San Francisco,CA,37.619,-122.37484,Gen. Edward Lawrence Logan International Airport,Boston,MA,42.36435,-71.00518,37.954705151072915,32.84568142979208,33.873825121048135,2015-08-01
5134858,2015,5,16,6,MQ,American Eagle Airlines Inc.,3525,N699MQ,CMI,ORD,18:05:00,18:03:00,-2.0,9.0,18:12:00,63.0,55.0,38.0,135,18:50:00,8.0,19:08:00,18:58:00,-10.0,0,0,,0.0,0.0,0.0,0.0,0.0,False,University of Illinois - Willard Airport,Champaign/Urbana,IL,40.03925,-88.27806,Chicago O'Hare International Airport,Chicago,IL,41.9796,-87.90446,29.017013232514177,38.586319218241044,48.343648208469055,2015-05-16
4947264,2015,11,15,7,DL,Delta Air Lines Inc.,1828,N908DL,SAV,ATL,10:15:00,10:09:00,-6.0,11.0,10:20:00,72.0,58.0,41.0,214,11:01:00,6.0,11:27:00,11:07:00,-20.0,0,0,,0.0,0.0,0.0,0.0,0.0,False,Savannah/Hilton Head International Airport,Savannah,GA,32.12758,-81.20214,Hartsfield-Jackson Atlanta International Airport,Atlanta,GA,33.64044,-84.42694,34.44709626093874,35.58083140877598,38.922247882986916,2015-11-15
2460390,2015,12,19,6,WN,Southwest Airlines Co.,1425,N8315C,BWI,PHX,15:45:00,15:45:00,0.0,14.0,15:59:00,315.0,307.0,285.0,1999,18:44:00,8.0,19:00:00,18:52:00,-8.0,0,0,,0.0,0.0,0.0,0.0,0.0,False,Baltimore-Washington International Airport,Baltimore,MD,39.1754,-76.6682,Phoenix Sky Harbor International Airport,Phoenix,AZ,33.43417,-112.00806,40.6359274619826,33.50378798707796,34.14837473912919,2015-12-19
1117491,2015,9,16,3,DL,Delta Air Lines Inc.,2493,N670DN,MSP,PDX,15:10:00,15:38:00,28.0,13.0,15:51:00,213.0,219.0,198.0,1426,17:09:00,8.0,16:43:00,17:17:00,34.0,0,0,,6.0,0.0,28.0,0.0,0.0,True,Minneapolis-Saint Paul International Airport,Minneapolis,MN,44.88055,-93.21692,Portland International Airport,Portland,OR,45.58872,-122.5975,33.48377141735865,25.80892890439786,30.049758930236276,2015-09-16
1097799,2015,6,26,5,EV,Atlantic Southeast Airlines,4171,N14920,EWR,MSN,16:21:00,18:28:00,127.0,22.0,18:50:00,153.0,158.0,128.0,799,19:58:00,8.0,17:54:00,20:06:00,132.0,0,0,,5.0,0.0,86.0,41.0,0.0,True,Newark Liberty International Airport,Newark,NJ,40.6925,-74.16866,Dane County Regional Airport,Madison,WI,43.13986,-89.33751,35.37908265534725,39.0636838304727,39.73129478420263,2015-06-26
1690251,2015,1,8,4,UA,United Air Lines Inc.,432,N804UA,ORD,CLT,13:16:00,14:04:00,48.0,18.0,14:22:00,115.0,96.0,71.0,599,16:33:00,7.0,16:11:00,16:40:00,29.0,0,0,,0.0,0.0,0.0,0.0,29.0,True,Chicago O'Hare International Airport,Chicago,IL,41.9796,-87.90446,Charlotte Douglas International Airport,Charlotte,NC,35.21401,-80.94313,39.62481286116047,37.05203873553376,39.5671030446412,2015-01-08
5003622,2015,6,24,3,EV,Atlantic Southeast Airlines,5818,N33182,TYS,DEN,08:58:00,08:49:00,-9.0,17.0,09:06:00,192.0,208.0,157.0,1162,09:43:00,34.0,10:10:00,10:17:00,7.0,0,0,,0.0,0.0,0.0,0.0,0.0,True,McGhee Tyson Airport,Knoxville,TN,35.81249,-83.99286,Denver International Airport,Denver,CO,39.85841,-104.667,38.273732586528794,33.79924953095685,40.39812382739212,2015-06-24
1512315,2015,9,26,6,B6,JetBlue Airways,749,N624JB,DCA,TPA,16:45:00,16:45:00,0.0,15.0,17:00:00,142.0,144.0,124.0,814,19:04:00,5.0,19:07:00,19:09:00,2.0,0,0,,0.0,0.0,0.0,0.0,0.0,True,Ronald Reagan Washington National Airport,Arlington,VA,38.85208,-77.03772,Tampa International Airport,Tampa,FL,27.97547,-82.53325,32.96609480445565,29.93237966045957,36.55917293542155,2015-09-26
4922240,2015,3,16,1,MQ,American Eagle Airlines Inc.,3338,N691MQ,GSP,DFW,05:56:00,05:55:00,-1.0,11.0,06:06:00,179.0,155.0,131.0,862,07:17:00,13.0,07:55:00,07:30:00,-25.0,0,0,,0.0,0.0,0.0,0.0,0.0,False,Greenville-Spartanburg International Airport,Greer,SC,34.89567,-82.21886,Dallas/Fort Worth International Airport,Dallas-Fort Worth,TX,32.89595,-97.0372,32.26841944359523,28.107531975367124,32.25390810042634,2015-03-16
5284934,2015,3,12,4,EV,Atlantic Southeast Airlines,4944,N859AS,AGS,ATL,05:30:00,05:26:00,-4.0,15.0,05:41:00,57.0,53.0,33.0,143,06:14:00,5.0,06:27:00,06:19:00,-8.0,0,0,,0.0,0.0,0.0,0.0,0.0,False,Augusta Regional Airport (Bush Field),Augusta,GA,33.36996,-81.9645,Hartsfield-Jackson Atlanta International Airport,Atlanta,GA,33.64044,-84.42694,42.52435408725116,25.2898406374502,31.844621513944222,2015-03-12
481163,2015,8,27,4,UA,United Air Lines Inc.,1212,N16709,DEN,IAH,18:45:00,18:48:00,3.0,10.0,18:58:00,144.0,125.0,109.0,862,21:47:00,6.0,22:09:00,21:53:00,-16.0,0,0,,0.0,0.0,0.0,0.0,0.0,False,Denver International Airport,Denver,CO,39.85841,-104.667,George Bush Intercontinental Airport,Houston,TX,29.98047,-95.33972,41.19048226263038,30.891128832532566,32.91439645351429,2015-08-27
3169583,2015,6,29,1,DL,Delta Air Lines Inc.,1163,N895AT,ATL,JAN,10:49:00,10:45:00,-4.0,11.0,10:56:00,77.0,68.0,53.0,341,10:49:00,4.0,11:06:00,10:53:00,-13.0,0,0,,0.0,0.0,0.0,0.0,0.0,False,Hartsfield-Jackson Atlanta International Airport,Atlanta,GA,33.64044,-84.42694,Jackson-Evers International Airport,Jackson,MS,32.31117,-90.07589,33.119976011717355,30.210617034612437,31.051239640643498,2015-06-29
5153445,2015,3,29,7,WN,Southwest Airlines Co.,1703,N7735A,MAF,DAL,14:05:00,14:00:00,-5.0,8.0,14:08:00,65.0,67.0,55.0,319,15:03:00,4.0,15:10:00,15:07:00,-3.0,0,0,,0.0,0.0,0.0,0.0,0.0,False,Midland International Airport,Midland,TX,31.94253,-102.20191,Dallas Love Field,Dallas,TX,32.84711,-96.85177,34.46260130197954,29.41094834232845,33.73130300693909,2015-03-29
4667752,2015,7,13,1,EV,Atlantic Southeast Airlines,5588,N868AS,LGA,CAE,20:00:00,20:15:00,15.0,51.0,21:06:00,143.0,145.0,91.0,617,22:37:00,3.0,22:23:00,22:40:00,17.0,0,0,,2.0,0.0,0.0,15.0,0.0,True,LaGuardia Airport (Marine Air Terminal),New York,NY,40.77724,-73.87261,Columbia Metropolitan Airport,Columbia,SC,33.93884,-81.11954,36.37969981426635,38.468567170769404,43.40197593553372,2015-07-13
661570,2015,8,23,7,AA,American Airlines Inc.,1505,N200AA,ONT,DFW,14:15:00,14:05:00,-10.0,11.0,14:16:00,185.0,183.0,155.0,1188,18:51:00,17.0,19:20:00,19:08:00,-12.0,0,0,,0.0,0.0,0.0,0.0,0.0,False,Ontario International Airport,Ontario,CA,34.056,-117.60119,Dallas/Fort Worth International Airport,Dallas-Fort Worth,TX,32.89595,-97.0372,34.36422293914785,30.656685011330527,30.988993201683392,2015-08-23
4637552,2015,3,11,3,DL,Delta Air Lines Inc.,1982,N978DL,LGA,MIA,15:29:00,16:03:00,34.0,13.0,16:16:00,205.0,173.0,154.0,1096,18:50:00,6.0,18:54:00,18:56:00,2.0,0,0,,0.0,0.0,0.0,0.0,0.0,True,LaGuardia Airport (Marine Air Terminal),New York,NY,40.77724,-73.87261,Miami International Airport,Miami,FL,25.79325,-80.29056,36.37969981426635,38.468567170769404,43.40197593553372,2015-03-11
2829847,2015,7,26,7,EV,Atlantic Southeast Airlines,4415,N12996,IAH,MAF,21:15:00,21:14:00,-1.0,13.0,21:27:00,85.0,82.0,64.0,429,22:31:00,5.0,22:40:00,22:36:00,-4.0,0,0,,0.0,0.0,0.0,0.0,0.0,False,George Bush Intercontinental Airport,Houston,TX,29.98047,-95.33972,Midland International Airport,Midland,TX,31.94253,-102.20191,40.8015168255787,30.773569136132657,32.97609654987965,2015-07-26
3668605,2015,1,14,3,WN,Southwest Airlines Co.,220,N709SW,BNA,MSY,08:20:00,08:15:00,-5.0,11.0,08:26:00,95.0,90.0,75.0,471,09:41:00,4.0,09:55:00,09:45:00,-10.0,0,0,,0.0,0.0,0.0,0.0,0.0,False,Nashville International Airport,Nashville,TN,36.12448,-86.67818,Louis Armstrong New Orleans International Airport,New Orleans,LA,29.99339,-90.25803,35.19966372425389,31.188619536661093,33.12610460950561,2015-01-14
1131229,2015,3,17,2,DL,Delta Air Lines Inc.,939,N137DL,MSP,LAX,09:17:00,09:16:00,-1.0,13.0,09:29:00,253.0,233.0,204.0,1535,10:53:00,16.0,11:30:00,11:09:00,-21.0,0,0,,0.0,0.0,0.0,0.0,0.0,False,Minneapolis-Saint Paul International Airport,Minneapolis,MN,44.88055,-93.21692,Los Angeles International Airport,Los Angeles,CA,33.94254,-118.40807,33.48377141735865,25.80892890439786,30.049758930236276,2015-03-17
3631156,2015,2,22,7,B6,JetBlue Airways,839,N644JB,JFK,BQN,23:59:00,00:43:00,44.0,20.0,01:03:00,221.0,212.0,189.0,1576,05:12:00,3.0,04:40:00,05:15:00,35.0,0,0,,0.0,0.0,21.0,14.0,0.0,True,John F. Kennedy International Airport (New York International Airport),New York,NY,40.63975,-73.77893,Rafael Hernández Airport,Aguadilla,PR,18.49486,-67.12944,35.68451460916097,35.763532082686105,41.01123192735094,2015-02-22
1202472,2015,4,2,4,OO,Skywest Airlines Inc.,4577,N438SW,MSP,GRR,07:16:00,07:12:00,-4.0,22.0,07:34:00,88.0,89.0,63.0,408,09:37:00,4.0,09:44:00,09:41:00,-3.0,0,0,,0.0,0.0,0.0,0.0,0.0,False,Minneapolis-Saint Paul International Airport,Minneapolis,MN,44.88055,-93.21692,Gerald R. Ford International Airport,Grand Rapids,MI,42.88082,-85.52277,33.48377141735865,25.80892890439786,30.049758930236276,2015-04-02
4039068,2015,4,22,3,WN,Southwest Airlines Co.,1628,N610WN,HOU,ABQ,07:30:00,07:25:00,-5.0,17.0,07:42:00,135.0,141.0,120.0,759,08:42:00,4.0,08:45:00,08:46:00,1.0,0,0,,0.0,0.0,0.0,0.0,0.0,True,William P. Hobby Airport,Houston,TX,29.64542,-95.27889,Albuquerque International Sunport,Albuquerque,NM,35.04022,-106.60919,42.2024518658007,29.898966443564177,29.896963074261258,2015-04-22
919590,2015,3,24,2,OO,Skywest Airlines Inc.,4488,N692CA,LAS,SLC,06:30:00,06:24:00,-6.0,11.0,06:35:00,89.0,79.0,58.0,368,08:33:00,10.0,08:59:00,08:43:00,-16.0,0,0,,0.0,0.0,0.0,0.0,0.0,False,McCarran International Airport,Las Vegas,NV,36.08036,-115.15233,Salt Lake City International Airport,Salt Lake City,UT,40.78839,-111.97777,39.71812796119566,30.74919182562338,31.755184604041816,2015-03-24
905881,2015,1,22,4,VX,Virgin America,475,N846VA,LAS,LAX,15:30:00,15:23:00,-7.0,22.0,15:45:00,70.0,72.0,43.0,236,16:28:00,7.0,16:40:00,16:35:00,-5.0,0,0,,0.0,0.0,0.0,0.0,0.0,False,McCarran International Airport,Las Vegas,NV,36.08036,-115.15233,Los Angeles International Airport,Los Angeles,CA,33.94254,-118.40807,39.71812796119566,30.74919182562338,31.755184604041816,2015-01-22
3824768,2015,9,7,1,OO,Skywest Airlines Inc.,6241,N771SK,OKC,SFO,08:00:00,07:50:00,-10.0,15.0,08:05:00,216.0,205.0,183.0,1384,09:08:00,7.0,09:36:00,09:15:00,-21.0,0,0,,0.0,0.0,0.0,0.0,0.0,False,Will Rogers World Airport,Oklahoma City,OK,35.39309,-97.60073,San Francisco International Airport,San Francisco,CA,37.619,-122.37484,33.696729435084244,32.987132352941174,37.03841911764706,2015-09-07
5136494,2015,4,28,2,MQ,American Eagle Airlines Inc.,3367,N508MQ,COU,ORD,05:30:00,05:23:00,-7.0,19.0,05:42:00,80.0,79.0,52.0,315,06:34:00,8.0,06:50:00,06:42:00,-8.0,0,0,,0.0,0.0,0.0,0.0,0.0,False,Columbia Regional Airport,Columbia,MO,38.81809,-92.21963,Chicago O'Hare International Airport,Chicago,IL,41.9796,-87.90446,35.62691131498471,47.27038626609442,54.22103004291846,2015-04-28
3979084,2015,6,25,4,DL,Delta Air Lines Inc.,1732,N957AT,CLE,ATL,16:33:00,16:28:00,-5.0,8.0,16:36:00,114.0,90.0,76.0,554,17:52:00,6.0,18:27:00,17:58:00,-29.0,0,0,,0.0,0.0,0.0,0.0,0.0,False,Cleveland Hopkins International Airport,Cleveland,OH,41.41089,-81.8494,Hartsfield-Jackson Atlanta International Airport,Atlanta,GA,33.64044,-84.42694,31.72395848391107,34.01767975940946,38.02059600838422,2015-06-25
1176013,2015,5,14,4,WN,Southwest Airlines Co.,4918,N641SW,MSP,STL,06:40:00,06:39:00,-1.0,9.0,06:48:00,80.0,79.0,67.0,448,07:55:00,3.0,08:00:00,07:58:00,-2.0,0,0,,0.0,0.0,0.0,0.0,0.0,False,Minneapolis-Saint Paul International Airport,Minneapolis,MN,44.88055,-93.21692,St. Louis International Airport at Lambert Field,St Louis,MO,38.74769,-90.35999,33.48377141735865,25.80892890439786,30.049758930236276,2015-05-14
3899321,2015,9,1,2,AA,American Airlines Inc.,691,N199UW,CLT,MCO,13:00:00,12:52:00,-8.0,19.0,13:11:00,95.0,102.0,76.0,468,14:27:00,7.0,14:35:00,14:34:00,-1.0,0,0,,0.0,0.0,0.0,0.0,0.0,False,Charlotte Douglas International Airport,Charlotte,NC,35.21401,-80.94313,Orlando International Airport,Orlando,FL,28.42889,-81.31603,41.30716478609306,23.564489273907483,29.016408870442316,2015-09-01
3580621,2015,4,4,6,DL,Delta Air Lines Inc.,420,N3742C,JFK,DEN,20:00:00,21:12:00,72.0,27.0,21:39:00,284.0,282.0,250.0,1626,23:49:00,5.0,22:44:00,23:54:00,70.0,0,0,,0.0,0.0,70.0,0.0,0.0,True,John F. Kennedy International Airport (New York International Airport),New York,NY,40.63975,-73.77893,Denver International Airport,Denver,CO,39.85841,-104.667,35.68451460916097,35.763532082686105,41.01123192735094,2015-04-04
5298968,2015,6,15,1,OO,Skywest Airlines Inc.,6253,N477CA,CPR,DEN,20:19:00,20:40:00,21.0,17.0,20:57:00,65.0,63.0,40.0,230,21:37:00,6.0,21:24:00,21:43:00,19.0,0,0,,0.0,0.0,0.0,19.0,0.0,True,Natrona County International Airport,Casper,WY,42.90836,-106.46447,Denver International Airport,Denver,CO,39.85841,-104.667,22.322435174746335,26.345959595959595,32.234848484848484,2015-06-15
5019229,2015,9,11,5,DL,Delta Air Lines Inc.,2368,N934AT,FSD,ATL,06:15:00,06:02:00,-13.0,11.0,06:13:00,145.0,144.0,125.0,954,09:18:00,8.0,09:40:00,09:26:00,-14.0,0,0,,0.0,0.0,0.0,0.0,0.0,False,Sioux Falls Regional Airport,Sioux Falls,SD,43.58135,-96.7417,Hartsfield-Jackson Atlanta International Airport,Atlanta,GA,33.64044,-84.42694,39.598574376289626,31.070108953102796,39.3879677877783,2015-09-11
1320216,2015,4,23,4,WN,Southwest Airlines Co.,1635,N353SW,SFO,SAN,19:10:00,19:10:00,0.0,11.0,19:21:00,95.0,96.0,82.0,447,20:43:00,3.0,20:45:00,20:46:00,1.0,0,0,,0.0,0.0,0.0,0.0,0.0,True,San Francisco International Airport,San Francisco,CA,37.619,-122.37484,San Diego International Airport (Lindbergh Field),San Diego,CA,32.73356,-117.18966,37.954705151072915,32.84568142979208,33.873825121048135,2015-04-23
321650,2015,4,29,3,NK,Spirit Air Lines,116,N515NK,PHX,DEN,11:55:00,11:50:00,-5.0,12.0,12:02:00,104.0,102.0,85.0,602,14:27:00,5.0,14:39:00,14:32:00,-7.0,0,0,,0.0,0.0,0.0,0.0,0.0,False,Phoenix Sky Harbor International Airport,Phoenix,AZ,33.43417,-112.00806,Denver International Airport,Denver,CO,39.85841,-104.667,39.69076729217042,24.887578940142777,26.8585255354201,2015-04-29
2408708,2015,5,8,5,US,US Airways Inc.,1918,N957UW,BOS,PHL,19:30:00,19:22:00,-8.0,16.0,19:38:00,90.0,79.0,55.0,280,20:33:00,8.0,21:00:00,20:41:00,-19.0,0,0,,0.0,0.0,0.0,0.0,0.0,False,Gen. Edward Lawrence Logan International Airport,Boston,MA,42.36435,-71.00518,Philadelphia International Airport,Philadelphia,PA,39.87195,-75.24114,35.91662262278969,30.034774751516718,35.44770879049955,2015-05-08
1265728,2015,1,19,1,WN,Southwest Airlines Co.,4569,N961WN,SFO,LAS,06:45:00,06:43:00,-2.0,9.0,06:52:00,90.0,73.0,59.0,414,07:51:00,5.0,08:15:00,07:56:00,-19.0,0,0,,0.0,0.0,0.0,0.0,0.0,False,San Francisco International Airport,San Francisco,CA,37.619,-122.37484,McCarran International Airport,Las Vegas,NV,36.08036,-115.15233,37.954705151072915,32.84568142979208,33.873825121048135,2015-01-19
3531307,2015,7,23,4,EV,Atlantic Southeast Airlines,6178,N14972,IAD,EWR,12:30:00,12:26:00,-4.0,33.0,12:59:00,86.0,85.0,39.0,212,13:38:00,13.0,13:56:00,13:51:00,-5.0,0,0,,0.0,0.0,0.0,0.0,0.0,False,Washington Dulles International Airport,Chantilly,VA,38.94453,-77.45581,Newark Liberty International Airport,Newark,NJ,40.6925,-74.16866,35.36802215420492,37.588972224511664,40.98648314514135,2015-07-23
2277987,2015,11,29,7,DL,Delta Air Lines Inc.,1405,N552NW,DTW,MCO,19:58:00,19:55:00,-3.0,15.0,20:10:00,163.0,159.0,134.0,957,22:24:00,10.0,22:41:00,22:34:00,-7.0,0,0,,0.0,0.0,0.0,0.0,0.0,False,Detroit Metropolitan Airport,Detroit,MI,42.21206,-83.34884,Orlando International Airport,Orlando,FL,28.42889,-81.31603,33.438709677419354,31.526032909787492,35.202447562084835,2015-11-29
4564872,2015,6,27,6,HA,Hawaiian Airlines Inc.,341,N490HA,ITO,HNL,09:25:00,09:16:00,-9.0,10.0,09:26:00,51.0,52.0,36.0,216,10:02:00,6.0,10:16:00,10:08:00,-8.0,0,0,,0.0,0.0,0.0,0.0,0.0,False,Hilo International Airport,Hilo,HI,19.72026,-155.04847,Honolulu International Airport,Honolulu,HI,21.31869,-157.92241,32.64022365892015,10.511777301927195,14.730728051391862,2015-06-27
2753095,2015,9,1,2,UA,United Air Lines Inc.,587,N817UA,IAH,SFO,14:36:00,14:35:00,-1.0,14.0,14:49:00,248.0,224.0,206.0,1635,16:15:00,4.0,16:44:00,16:19:00,-25.0,0,0,,0.0,0.0,0.0,0.0,0.0,False,George Bush Intercontinental Airport,Houston,TX,29.98047,-95.33972,San Francisco International Airport,San Francisco,CA,37.619,-122.37484,40.8015168255787,30.773569136132657,32.97609654987965,2015-09-01
4562686,2015,1,29,4,HA,Hawaiian Airlines Inc.,121,N489HA,ITO,HNL,08:40:00,08:37:00,-3.0,9.0,08:46:00,50.0,65.0,46.0,216,09:32:00,10.0,09:30:00,09:42:00,12.0,0,0,,0.0,0.0,0.0,0.0,0.0,True,Hilo International Airport,Hilo,HI,19.72026,-155.04847,Honolulu International Airport,Honolulu,HI,21.31869,-157.92241,32.64022365892015,10.511777301927195,14.730728051391862,2015-01-29
634557,2015,6,2,2,WN,Southwest Airlines Co.,593,N8301J,OAK,DEN,05:45:00,05:41:00,-4.0,9.0,05:50:00,155.0,133.0,116.0,957,08:46:00,8.0,09:20:00,08:54:00,-26.0,0,0,,0.0,0.0,0.0,0.0,0.0,False,Oakland International Airport,Oakland,CA,37.72129,-122.22072,Denver International Airport,Denver,CO,39.85841,-104.667,43.503639285376686,24.403281003856808,25.718507251887665,2015-06-02
1963383,2015,5,18,1,AA,American Airlines Inc.,280,N375AA,DFW,MIA,18:20:00,20:56:00,156.0,12.0,21:08:00,173.0,154.0,139.0,1121,00:27:00,3.0,22:13:00,00:30:00,137.0,0,0,,0.0,0.0,137.0,0.0,0.0,True,Dallas/Fort Worth International Airport,Dallas-Fort Worth,TX,32.89595,-97.0372,Miami International Airport,Miami,FL,25.79325,-80.29056,38.84517284419602,32.11307412900037,34.16857953446386,2015-05-18
3704440,2015,2,20,5,EV,Atlantic Southeast Airlines,5073,N391CA,RDU,DTW,09:30:00,09:34:00,4.0,14.0,09:48:00,112.0,109.0,85.0,501,11:13:00,10.0,11:22:00,11:23:00,1.0,0,0,,0.0,0.0,0.0,0.0,0.0,True,Raleigh-Durham International Airport,Raleigh,NC,35.87764,-78.78747,Detroit Metropolitan Airport,Detroit,MI,42.21206,-83.34884,34.11713067469275,32.31418856827789,35.884947619922805,2015-02-20
3217927,2015,8,23,7,UA,United Air Lines Inc.,1790,N12218,TPA,ORD,16:21:00,16:24:00,3.0,11.0,16:35:00,174.0,173.0,145.0,1012,18:00:00,17.0,18:15:00,18:17:00,2.0,0,0,,0.0,0.0,0.0,0.0,0.0,True,Tampa International Airport,Tampa,FL,27.97547,-82.53325,Chicago O'Hare International Airport,Chicago,IL,41.9796,-87.90446,34.538228022407914,34.06551286698079,35.62527183762233,2015-08-23
1640388,2015,7,29,3,UA,United Air Lines Inc.,597,N422UA,ORD,BWI,17:57:00,17:53:00,-4.0,18.0,18:11:00,128.0,112.0,89.0,622,20:40:00,5.0,21:05:00,20:45:00,-20.0,0,0,,0.0,0.0,0.0,0.0,0.0,False,Chicago O'Hare International Airport,Chicago,IL,41.9796,-87.90446,Baltimore-Washington International Airport,Baltimore,MD,39.1754,-76.6682,39.62481286116047,37.05203873553376,39.5671030446412,2015-07-29
4048679,2015,7,14,2,WN,Southwest Airlines Co.,4286,N8302F,HOU,MDW,07:25:00,07:25:00,0.0,9.0,07:34:00,150.0,144.0,127.0,937,09:41:00,8.0,09:55:00,09:49:00,-6.0,0,0,,0.0,0.0,0.0,0.0,0.0,False,William P. Hobby Airport,Houston,TX,29.64542,-95.27889,Chicago Midway International Airport,Chicago,IL,41.78598,-87.75242,42.2024518658007,29.898966443564177,29.896963074261258,2015-07-14
3480958,2015,2,12,4,DL,Delta Air Lines Inc.,1858,N945DN,AUS,ATL,12:24:00,12:22:00,-2.0,14.0,12:36:00,125.0,122.0,100.0,813,15:16:00,8.0,15:29:00,15:24:00,-5.0,0,0,,0.0,0.0,0.0,0.0,0.0,False,Austin-Bergstrom International Airport,Austin,TX,30.19453,-97.66987,Hartsfield-Jackson Atlanta International Airport,Atlanta,GA,33.64044,-84.42694,34.8990895476264,32.64028335944418,34.07220216606498,2015-02-12
1364428,2015,7,3,5,OO,Skywest Airlines Inc.,5646,N982SW,SFO,SBA,10:34:00,10:32:00,-2.0,18.0,10:50:00,81.0,71.0,50.0,262,11:40:00,3.0,11:55:00,11:43:00,-12.0,0,0,,0.0,0.0,0.0,0.0,0.0,False,San Francisco International Airport,San Francisco,CA,37.619,-122.37484,Santa Barbara Municipal Airport (Santa Barbara Airport),Santa Barbara,CA,34.42621,-119.84037,37.954705151072915,32.84568142979208,33.873825121048135,2015-07-03
1470258,2015,11,13,5,WN,Southwest Airlines Co.,2984,N720WN,SMF,SAN,06:00:00,05:57:00,-3.0,8.0,06:05:00,90.0,79.0,68.0,480,07:13:00,3.0,07:30:00,07:16:00,-14.0,0,0,,0.0,0.0,0.0,0.0,0.0,False,Sacramento International Airport,Sacramento,CA,38.69542,-121.59077,San Diego International Airport (Lindbergh Field),San Diego,CA,32.73356,-117.18966,39.363646135655166,24.399508465319496,26.66500546149645,2015-11-13
2606831,2015,1,21,3,B6,JetBlue Airways,1784,N715JB,MCO,JFK,13:58:00,13:53:00,-5.0,12.0,14:05:00,152.0,134.0,117.0,944,16:02:00,5.0,16:30:00,16:07:00,-23.0,0,0,,0.0,0.0,0.0,0.0,0.0,False,Orlando International Airport,Orlando,FL,28.42889,-81.31603,John F. Kennedy International Airport (New York International Airport),New York,NY,40.63975,-73.77893,37.23666900938891,35.90524125248028,37.849247447127716,2015-01-21
3801753,2015,7,14,2,MQ,American Eagle Airlines Inc.,3063,N618MQ,OMA,ORD,09:10:00,09:02:00,-8.0,15.0,09:17:00,98.0,93.0,69.0,416,10:26:00,9.0,10:48:00,10:35:00,-13.0,0,0,,0.0,0.0,0.0,0.0,0.0,False,Eppley Airfield,Omaha,NE,41.30252,-95.89417,Chicago O'Hare International Airport,Chicago,IL,41.9796,-87.90446,33.355219960604074,30.37491052254832,34.71528274874731,2015-07-14
2574256,2015,9,17,4,UA,United Air Lines Inc.,1016,N73860,MCO,IAH,08:50:00,12:51:00,241.0,18.0,13:09:00,141.0,152.0,126.0,854,14:15:00,8.0,10:11:00,14:23:00,252.0,0,0,,11.0,0.0,241.0,0.0,0.0,True,Orlando International Airport,Orlando,FL,28.42889,-81.31603,George Bush Intercontinental Airport,Houston,TX,29.98047,-95.33972,37.23666900938891,35.90524125248028,37.849247447127716,2015-09-17
2560320,2015,3,22,7,DL,Delta Air Lines Inc.,1943,N824DN,MCO,ATL,18:30:00,18:29:00,-1.0,22.0,18:51:00,109.0,131.0,96.0,404,20:27:00,13.0,20:19:00,20:40:00,21.0,0,0,,21.0,0.0,0.0,0.0,0.0,True,Orlando International Airport,Orlando,FL,28.42889,-81.31603,Hartsfield-Jackson Atlanta International Airport,Atlanta,GA,33.64044,-84.42694,37.23666900938891,35.90524125248028,37.849247447127716,2015-03-22
3836014,2015,6,29,1,OO,Skywest Airlines Inc.,5447,N930SW,MKE,ORD,12:25:00,12:15:00,-10.0,44.0,12:59:00,49.0,83.0,26.0,67,13:25:00,13.0,13:14:00,13:38:00,24.0,0,0,,24.0,0.0,0.0,0.0,0.0,True,General Mitchell International Airport,Milwaukee,WI,42.94722,-87.89658,Chicago O'Hare International Airport,Chicago,IL,41.9796,-87.90446,32.05029337803856,31.08097081284653,35.432681242807824,2015-06-29
4495994,2015,2,24,2,WN,Southwest Airlines Co.,687,N7747C,ELP,HOU,16:30:00,16:54:00,24.0,11.0,17:05:00,110.0,107.0,91.0,677,19:36:00,5.0,19:20:00,19:41:00,21.0,0,0,,0.0,0.0,0.0,21.0,0.0,True,El Paso International Airport,El Paso,TX,31.80667,-106.37781,William P. Hobby Airport,Houston,TX,29.64542,-95.27889,35.98396257935182,27.90761374187558,30.245589600742804,2015-02-24
1949792,2015,7,29,3,AA,American Airlines Inc.,204,N027AA,DFW,STL,13:30:00,13:27:00,-3.0,14.0,13:41:00,105.0,99.0,82.0,550,15:03:00,3.0,15:15:00,15:06:00,-9.0,0,0,,0.0,0.0,0.0,0.0,0.0,False,Dallas/Fort Worth International Airport,Dallas-Fort Worth,TX,32.89595,-97.0372,St. Louis International Airport at Lambert Field,St Louis,MO,38.74769,-90.35999,38.84517284419602,32.11307412900037,34.16857953446386,2015-07-29
98562,2015,1,24,6,UA,United Air Lines Inc.,1431,N57852,LAX,HNL,13:17:00,13:22:00,5.0,17.0,13:39:00,353.0,340.0,319.0,2556,16:58:00,4.0,17:10:00,17:02:00,-8.0,0,0,,0.0,0.0,0.0,0.0,0.0,False,Los Angeles International Airport,Los Angeles,CA,33.94254,-118.40807,Honolulu International Airport,Honolulu,HI,21.31869,-157.92241,40.92041526046242,28.434892858487842,30.50851734223773,2015-01-24
5074235,2015,3,6,5,NK,Spirit Air Lines,341,N633NK,ACY,TPA,13:38:00,14:30:00,52.0,8.0,14:38:00,150.0,168.0,152.0,913,17:10:00,8.0,16:08:00,17:18:00,70.0,0,0,,18.0,0.0,23.0,29.0,0.0,True,Atlantic City International Airport,Atlantic City,NJ,39.45758,-74.57717,Tampa International Airport,Tampa,FL,27.97547,-82.53325,40.117581187010074,32.032100488485696,37.43963712491277,2015-03-06
4419461,2015,1,24,6,B6,JetBlue Airways,1786,N273JB,PIT,BOS,15:06:00,15:31:00,25.0,12.0,15:43:00,96.0,99.0,81.0,496,17:04:00,6.0,16:42:00,17:10:00,28.0,0,0,,3.0,0.0,0.0,25.0,0.0,True,Pittsburgh International Airport,Pittsburgh,PA,40.49147,-80.23287,Gen. Edward Lawrence Logan International Airport,Boston,MA,42.36435,-71.00518,28.161539099427813,29.553003533568905,32.7670789163722,2015-01-24
939786,2015,9,13,7,UA,United Air Lines Inc.,195,N13138,LAS,EWR,12:07:00,12:06:00,-1.0,19.0,12:25:00,298.0,297.0,265.0,2227,19:50:00,13.0,20:05:00,20:03:00,-2.0,0,0,,0.0,0.0,0.0,0.0,0.0,False,McCarran International Airport,Las Vegas,NV,36.08036,-115.15233,Newark Liberty International Airport,Newark,NJ,40.6925,-74.16866,39.71812796119566,30.74919182562338,31.755184604041816,2015-09-13
4683828,2015,5,14,4,AA,American Airlines Inc.,1596,N3CMAA,SJU,JFK,08:50:00,05:08:00,1218.0,11.0,05:19:00,238.0,232.0,216.0,1598,08:55:00,5.0,12:48:00,09:00:00,1212.0,0,0,,0.0,0.0,1212.0,0.0,0.0,True,Luis Muñoz Marín International Airport,San Juan,PR,18.43942,-66.00183,John F. Kennedy International Airport (New York International Airport),New York,NY,40.63975,-73.77893,32.47079818299805,36.73020234823882,36.68710966774919,2015-05-14
1715517,2015,7,5,7,EV,Atlantic Southeast Airlines,4125,N12175,ORD,IND,09:54:00,09:50:00,-4.0,11.0,10:01:00,64.0,55.0,34.0,177,11:35:00,10.0,11:58:00,11:45:00,-13.0,0,0,,0.0,0.0,0.0,0.0,0.0,False,Chicago O'Hare International Airport,Chicago,IL,41.9796,-87.90446,Indianapolis International Airport,Indianapolis,IN,39.71733,-86.29438,39.62481286116047,37.05203873553376,39.5671030446412,2015-07-05
4394307,2015,9,24,4,MQ,American Eagle Airlines Inc.,3334,N521MQ,LIT,ORD,09:22:00,09:14:00,-8.0,10.0,09:24:00,112.0,93.0,78.0,552,10:42:00,5.0,11:14:00,10:47:00,-27.0,0,0,,0.0,0.0,0.0,0.0,0.0,False,Bill and Hillary Clinton National Airport (Adams Field),Little Rock,AR,34.7294,-92.22425,Chicago O'Hare International Airport,Chicago,IL,41.9796,-87.90446,34.83976204183458,32.92701735059212,38.39686036904434,2015-09-24
4763973,2015,9,2,3,AA,American Airlines Inc.,2070,N822AW,BDL,CLT,19:15:00,19:15:00,0.0,9.0,19:24:00,123.0,101.0,86.0,644,20:50:00,6.0,21:18:00,20:56:00,-22.0,0,0,,0.0,0.0,0.0,0.0,0.0,False,Bradley International Airport,Windsor Locks,CT,41.93887,-72.68323,Charlotte Douglas International Airport,Charlotte,NC,35.21401,-80.94313,30.27288685568381,30.582322966086803,34.36707081356528,2015-09-02
4936151,2015,8,8,6,OO,Skywest Airlines Inc.,5303,N939SW,AVL,ORD,06:08:00,06:15:00,7.0,13.0,06:28:00,107.0,112.0,84.0,536,06:52:00,15.0,06:55:00,07:07:00,12.0,0,0,,0.0,0.0,0.0,0.0,0.0,True,Asheville Regional Airport,Asheville,NC,35.43619,-82.54181,Chicago O'Hare International Airport,Chicago,IL,41.9796,-87.90446,33.98907103825137,33.78992497320471,39.449088960342976,2015-08-08
2551933,2015,1,13,2,DL,Delta Air Lines Inc.,2582,N547US,MCO,LAX,07:10:00,07:09:00,-1.0,13.0,07:22:00,340.0,346.0,306.0,2218,09:28:00,27.0,09:50:00,09:55:00,5.0,0,0,,0.0,0.0,0.0,0.0,0.0,True,Orlando International Airport,Orlando,FL,28.42889,-81.31603,Los Angeles International Airport,Los Angeles,CA,33.94254,-118.40807,37.23666900938891,35.90524125248028,37.849247447127716,2015-01-13
2395078,2015,2,25,3,US,US Airways Inc.,2142,N764US,BOS,DCA,15:00:00,14:59:00,-1.0,16.0,15:15:00,102.0,93.0,75.0,399,16:30:00,2.0,16:42:00,16:32:00,-10.0,0,0,,0.0,0.0,0.0,0.0,0.0,False,Gen. Edward Lawrence Logan International Airport,Boston,MA,42.36435,-71.00518,Ronald Reagan Washington National Airport,Arlington,VA,38.85208,-77.03772,35.91662262278969,30.034774751516718,35.44770879049955,2015-02-25
2524544,2015,9,26,6,WN,Southwest Airlines Co.,1359,N627SW,BWI,BUF,11:30:00,11:30:00,0.0,11.0,11:41:00,65.0,60.0,44.0,281,12:25:00,5.0,12:35:00,12:30:00,-5.0,0,0,,0.0,0.0,0.0,0.0,0.0,False,Baltimore-Washington International Airport,Baltimore,MD,39.1754,-76.6682,Buffalo Niagara International Airport,Buffalo,NY,42.94052,-78.73217,40.6359274619826,33.50378798707796,34.14837473912919,2015-09-26
4015381,2015,8,2,7,WN,Southwest Airlines Co.,900,N422WN,HOU,PHX,12:35:00,13:14:00,39.0,7.0,13:21:00,155.0,145.0,131.0,1020,13:32:00,7.0,13:10:00,13:39:00,29.0,0,0,,0.0,0.0,7.0,22.0,0.0,True,William P. Hobby Airport,Houston,TX,29.64542,-95.27889,Phoenix Sky Harbor International Airport,Phoenix,AZ,33.43417,-112.00806,42.2024518658007,29.898966443564177,29.896963074261258,2015-08-02
1184495,2015,1,23,5,DL,Delta Air Lines Inc.,2318,N332NB,MSP,BZN,11:15:00,11:08:00,-7.0,9.0,11:17:00,153.0,133.0,120.0,874,12:17:00,4.0,12:48:00,12:21:00,-27.0,0,0,,0.0,0.0,0.0,0.0,0.0,False,Minneapolis-Saint Paul International Airport,Minneapolis,MN,44.88055,-93.21692,Bozeman Yellowstone International Airport (Gallatin Field Airport),Bozeman,MT,45.7769,-111.15301,33.48377141735865,25.80892890439786,30.049758930236276,2015-01-23
1526836,2015,5,22,5,WN,Southwest Airlines Co.,876,N264LV,DCA,STL,18:55:00,18:49:00,-6.0,19.0,19:08:00,130.0,148.0,122.0,719,20:10:00,7.0,20:05:00,20:17:00,12.0,0,0,,0.0,0.0,0.0,0.0,0.0,True,Ronald Reagan Washington National Airport,Arlington,VA,38.85208,-77.03772,St. Louis International Airport at Lambert Field,St Louis,MO,38.74769,-90.35999,32.96609480445565,29.93237966045957,36.55917293542155,2015-05-22
2527406,2015,2,28,6,WN,Southwest Airlines Co.,221,N411WN,BWI,RSW,16:30:00,19:00:00,150.0,9.0,19:09:00,165.0,152.0,140.0,919,21:29:00,3.0,19:15:00,21:32:00,137.0,0,0,,0.0,0.0,137.0,0.0,0.0,True,Baltimore-Washington International Airport,Baltimore,MD,39.1754,-76.6682,Southwest Florida International Airport,Ft. Myers,FL,26.53617,-81.75517,40.6359274619826,33.50378798707796,34.14837473912919,2015-02-28
5005011,2015,1,31,6,EV,Atlantic Southeast Airlines,5948,N13908,AVP,ORD,13:15:00,13:09:00,-6.0,12.0,13:21:00,141.0,151.0,133.0,632,14:34:00,6.0,14:36:00,14:40:00,4.0,0,0,,0.0,0.0,0.0,0.0,0.0,True,Wilkes-Barre/Scranton International Airport,Wilkes-Barre/Scranton,PA,41.33815,-75.72427,Chicago O'Hare International Airport,Chicago,IL,41.9796,-87.90446,34.0691685062546,33.87257019438445,40.44924406047516,2015-01-31
1649793,2015,12,4,5,AA,American Airlines Inc.,2367,N3BWAA,ORD,FLL,15:00:00,14:59:00,-1.0,17.0,15:16:00,186.0,195.0,169.0,1182,19:05:00,9.0,19:06:00,19:14:00,8.0,0,0,,0.0,0.0,0.0,0.0,0.0,True,Chicago O'Hare International Airport,Chicago,IL,41.9796,-87.90446,Fort Lauderdale-Hollywood International Airport,Ft. Lauderdale,FL,26.07258,-80.15275,39.62481286116047,37.05203873553376,39.5671030446412,2015-12-04
3539180,2015,6,9,2,B6,JetBlue Airways,1208,N283JB,IAD,JFK,07:20:00,07:17:00,-3.0,12.0,07:29:00,82.0,67.0,48.0,228,08:17:00,7.0,08:42:00,08:24:00,-18.0,0,0,,0.0,0.0,0.0,0.0,0.0,False,Washington Dulles International Airport,Chantilly,VA,38.94453,-77.45581,John F. Kennedy International Airport (New York International Airport),New York,NY,40.63975,-73.77893,35.36802215420492,37.588972224511664,40.98648314514135,2015-06-09
3838420,2015,3,5,4,WN,Southwest Airlines Co.,1964,N8661A,MKE,LAS,06:55:00,06:53:00,-2.0,12.0,07:05:00,255.0,241.0,196.0,1524,08:21:00,33.0,09:10:00,08:54:00,-16.0,0,0,,0.0,0.0,0.0,0.0,0.0,False,General Mitchell International Airport,Milwaukee,WI,42.94722,-87.89658,McCarran International Airport,Las Vegas,NV,36.08036,-115.15233,32.05029337803856,31.08097081284653,35.432681242807824,2015-03-05
813276,2015,1,29,4,DL,Delta Air Lines Inc.,522,N309US,SLC,CLT,17:09:00,17:03:00,-6.0,13.0,17:16:00,228.0,205.0,181.0,1727,22:17:00,11.0,22:57:00,22:28:00,-29.0,0,0,,0.0,0.0,0.0,0.0,0.0,False,Salt Lake City International Airport,Salt Lake City,UT,40.78839,-111.97777,Charlotte Douglas International Airport,Charlotte,NC,35.21401,-80.94313,31.977162843328877,22.10020910406949,25.83927939520669,2015-01-29
1915291,2015,2,24,2,AA,American Airlines Inc.,138,N3AGAA,DFW,DCA,16:55:00,16:56:00,1.0,13.0,17:09:00,159.0,150.0,132.0,1192,20:21:00,5.0,20:34:00,20:26:00,-8.0,0,0,,0.0,0.0,0.0,0.0,0.0,False,Dallas/Fort Worth International Airport,Dallas-Fort Worth,TX,32.89595,-97.0372,Ronald Reagan Washington National Airport,Arlington,VA,38.85208,-77.03772,38.84517284419602,32.11307412900037,34.16857953446386,2015-02-24
5279851,2015,1,5,1,EV,Atlantic Southeast Airlines,5059,N723EV,GNV,ATL,15:32:00,15:28:00,-4.0,11.0,15:39:00,77.0,70.0,50.0,300,16:29:00,9.0,16:49:00,16:38:00,-11.0,0,0,,0.0,0.0,0.0,0.0,0.0,False,Gainesville Regional Airport,Gainesville,FL,29.69006,-82.27178,Hartsfield-Jackson Atlanta International Airport,Atlanta,GA,33.64044,-84.42694,39.470741707044354,28.845136921624174,34.29272898961284,2015-01-05
2524677,2015,11,20,5,WN,Southwest Airlines Co.,412,N908WN,BWI,BUF,09:50:00,10:14:00,24.0,20.0,10:34:00,70.0,71.0,47.0,281,11:21:00,4.0,11:00:00,11:25:00,25.0,0,0,,1.0,0.0,0.0,24.0,0.0,True,Baltimore-Washington International Airport,Baltimore,MD,39.1754,-76.6682,Buffalo Niagara International Airport,Buffalo,NY,42.94052,-78.73217,40.6359274619826,33.50378798707796,34.14837473912919,2015-11-20
3657398,2015,9,26,6,WN,Southwest Airlines Co.,917,N550WN,BNA,OAK,11:00:00,11:43:00,43.0,7.0,11:50:00,290.0,259.0,240.0,1959,13:50:00,12.0,13:50:00,14:02:00,12.0,0,0,,0.0,0.0,0.0,0.0,0.0,True,Nashville International Airport,Nashville,TN,36.12448,-86.67818,Oakland International Airport,Oakland,CA,37.72129,-122.22072,35.19966372425389,31.188619536661093,33.12610460950561,2015-09-26
3891707,2015,2,15,7,US,US Airways Inc.,1978,N624AW,CLT,IAH,09:30:00,09:25:00,-5.0,15.0,09:40:00,173.0,156.0,134.0,912,10:54:00,7.0,11:23:00,11:01:00,-22.0,0,0,,0.0,0.0,0.0,0.0,0.0,False,Charlotte Douglas International Airport,Charlotte,NC,35.21401,-80.94313,George Bush Intercontinental Airport,Houston,TX,29.98047,-95.33972,41.30716478609306,23.564489273907483,29.016408870442316,2015-02-15
3398912,2015,2,7,6,US,US Airways Inc.,1950,N587UW,FLL,PHL,11:50:00,11:47:00,-3.0,12.0,11:59:00,165.0,158.0,140.0,992,14:19:00,6.0,14:35:00,14:25:00,-10.0,0,0,,0.0,0.0,0.0,0.0,0.0,False,Fort Lauderdale-Hollywood International Airport,Ft. Lauderdale,FL,26.07258,-80.15275,Philadelphia International Airport,Philadelphia,PA,39.87195,-75.24114,33.64663696620667,35.856935249475214,36.71108509607622,2015-02-07
4320285,2015,6,7,7,UA,United Air Lines Inc.,273,N467UA,SEA,IAH,11:45:00,11:48:00,3.0,9.0,11:57:00,259.0,253.0,225.0,1874,17:42:00,19.0,18:04:00,18:01:00,-3.0,0,0,,0.0,0.0,0.0,0.0,0.0,False,Seattle-Tacoma International Airport,Seattle,WA,47.44898,-122.30931,George Bush Intercontinental Airport,Houston,TX,29.98047,-95.33972,39.265457758861665,20.77834424158916,24.431071305545988,2015-06-07
4902243,2015,5,6,3,EV,Atlantic Southeast Airlines,5430,N147PQ,GSO,ATL,19:39:00,19:34:00,-5.0,26.0,20:00:00,79.0,93.0,58.0,306,20:58:00,9.0,20:58:00,21:07:00,9.0,0,0,,0.0,0.0,0.0,0.0,0.0,True,Piedmont Triad International Airport,Greensboro,NC,36.09775,-79.9373,Hartsfield-Jackson Atlanta International Airport,Atlanta,GA,33.64044,-84.42694,33.57577556776013,35.99248452696729,41.790893015030946,2015-05-06
5166835,2015,3,14,6,OO,Skywest Airlines Inc.,5346,N580SW,CLD,LAX,13:04:00,13:13:00,9.0,5.0,13:18:00,46.0,33.0,24.0,86,13:42:00,4.0,13:50:00,13:46:00,-4.0,0,0,,0.0,0.0,0.0,0.0,0.0,False,McClellan-Palomar Airport,San Diego,CA,33.12723,-117.27873,Los Angeles International Airport,Los Angeles,CA,33.94254,-118.40807,35.101404056162245,22.515555555555554,29.52888888888889,2015-03-14
2394315,2015,12,29,2,AA,American Airlines Inc.,2116,N807AW,BOS,DCA,20:00:00,20:53:00,53.0,42.0,21:35:00,98.0,114.0,70.0,399,22:45:00,2.0,21:38:00,22:47:00,69.0,0,0,,16.0,0.0,0.0,23.0,30.0,True,Gen. Edward Lawrence Logan International Airport,Boston,MA,42.36435,-71.00518,Ronald Reagan Washington National Airport,Arlington,VA,38.85208,-77.03772,35.91662262278969,30.034774751516718,35.44770879049955,2015-12-29
3277187,2015,4,4,6,F9,Frontier Airlines Inc.,914,N927FR,TPA,TTN,12:20:00,12:11:00,-9.0,17.0,12:28:00,149.0,153.0,131.0,955,14:39:00,5.0,14:49:00,14:44:00,-5.0,0,0,,0.0,0.0,0.0,0.0,0.0,False,Tampa International Airport,Tampa,FL,27.97547,-82.53325,Trenton Mercer Airport,Trenton,NJ,40.27669,-74.81347,34.538228022407914,34.06551286698079,35.62527183762233,2015-04-04
5039453,2015,11,3,2,EV,Atlantic Southeast Airlines,6011,N14158,GRB,ORD,10:41:00,10:36:00,-5.0,5.0,10:41:00,59.0,51.0,37.0,173,11:18:00,9.0,11:40:00,11:27:00,-13.0,0,0,,0.0,0.0,0.0,0.0,0.0,False,Green Bay-Austin Straubel International Airport,Green Bay,WI,44.48507,-88.12959,Chicago O'Hare International Airport,Chicago,IL,41.9796,-87.90446,34.398688793280066,22.90946992257296,31.990470518165576,2015-11-03
4515927,2015,3,16,1,EV,Atlantic Southeast Airlines,4500,N16919,SDF,EWR,12:20:00,12:11:00,-9.0,17.0,12:28:00,122.0,135.0,107.0,642,14:15:00,11.0,14:22:00,14:26:00,4.0,0,0,,0.0,0.0,0.0,0.0,0.0,True,Louisville International Airport (Standiford Field),Louisville,KY,38.17439,-85.736,Newark Liberty International Airport,Newark,NJ,40.6925,-74.16866,32.065856526852215,33.57029339853301,36.8942542787286,2015-03-16
545120,2015,5,16,6,OO,Skywest Airlines Inc.,5565,N793SK,DEN,FAT,18:51:00,18:53:00,2.0,26.0,19:19:00,141.0,150.0,117.0,844,20:16:00,7.0,20:12:00,20:23:00,11.0,0,0,,0.0,0.0,0.0,0.0,0.0,True,Denver International Airport,Denver,CO,39.85841,-104.667,Fresno Yosemite International Airport,Fresno,CA,36.77619,-119.71814,41.19048226263038,30.891128832532566,32.91439645351429,2015-05-16
4790280,2015,9,17,4,EV,Atlantic Southeast Airlines,4404,N48901,MEM,EWR,16:35:00,16:26:00,-9.0,8.0,16:34:00,164.0,152.0,137.0,946,19:51:00,7.0,20:19:00,19:58:00,-21.0,0,0,,0.0,0.0,0.0,0.0,0.0,False,Memphis International Airport,Memphis,TN,35.04242,-89.97667,Newark Liberty International Airport,Newark,NJ,40.6925,-74.16866,32.667569397427215,34.5139896373057,38.43481865284974,2015-09-17
3210624,2015,7,14,2,EV,Atlantic Southeast Airlines,5093,N919EV,ATL,DHN,19:34:00,19:32:00,-2.0,24.0,19:56:00,59.0,60.0,33.0,170,19:29:00,3.0,19:33:00,19:32:00,-1.0,0,0,,0.0,0.0,0.0,0.0,0.0,False,Hartsfield-Jackson Atlanta International Airport,Atlanta,GA,33.64044,-84.42694,Dothan Regional Airport,Dothan,AL,31.32134,-85.44963,33.119976011717355,30.210617034612437,31.051239640643498,2015-07-14
5032465,2015,8,18,2,EV,Atlantic Southeast Airlines,5862,N11539,ROA,ORD,17:05:00,17:12:00,7.0,12.0,17:24:00,114.0,100.0,78.0,531,17:42:00,10.0,17:59:00,17:52:00,-7.0,0,0,,0.0,0.0,0.0,0.0,0.0,False,Roanoke Regional Airport (Woodrum Field),Roanoke,VA,37.32547,-79.97543,Chicago O'Hare International Airport,Chicago,IL,41.9796,-87.90446,34.5749342681858,37.32572877059569,43.362484157160964,2015-08-18
4673522,2015,3,23,1,B6,JetBlue Airways,1034,N583JB,SJU,MCO,16:44:00,16:43:00,-1.0,13.0,16:56:00,191.0,188.0,166.0,1189,19:42:00,9.0,19:55:00,19:51:00,-4.0,0,0,,0.0,0.0,0.0,0.0,0.0,False,Luis Muñoz Marín International Airport,San Juan,PR,18.43942,-66.00183,Orlando International Airport,Orlando,FL,28.42889,-81.31603,32.47079818299805,36.73020234823882,36.68710966774919,2015-03-23
2985596,2015,9,13,7,DL,Delta Air Lines Inc.,1140,N316US,ATL,MSY,22:50:00,22:45:00,-5.0,11.0,22:56:00,89.0,76.0,62.0,425,22:58:00,3.0,23:19:00,23:01:00,-18.0,0,0,,0.0,0.0,0.0,0.0,0.0,False,Hartsfield-Jackson Atlanta International Airport,Atlanta,GA,33.64044,-84.42694,Louis Armstrong New Orleans International Airport,New Orleans,LA,29.99339,-90.25803,33.119976011717355,30.210617034612437,31.051239640643498,2015-09-13
4936050,2015,7,6,1,OO,Skywest Airlines Inc.,5290,N923SW,AVL,ORD,17:21:00,21:35:00,254.0,13.0,21:48:00,114.0,112.0,88.0,536,22:16:00,11.0,18:15:00,22:27:00,252.0,0,0,,0.0,0.0,0.0,252.0,0.0,True,Asheville Regional Airport,Asheville,NC,35.43619,-82.54181,Chicago O'Hare International Airport,Chicago,IL,41.9796,-87.90446,33.98907103825137,33.78992497320471,39.449088960342976,2015-07-06
4073789,2015,9,27,7,OO,Skywest Airlines Inc.,6352,N127SY,BOI,SFO,17:50:00,17:43:00,-7.0,12.0,17:55:00,110.0,111.0,95.0,522,18:30:00,4.0,18:40:00,18:34:00,-6.0,0,0,,0.0,0.0,0.0,0.0,0.0,False,Boise Airport (Boise Air Terminal),Boise,ID,43.56444,-116.22278,San Francisco International Airport,San Francisco,CA,37.619,-122.37484,35.58129558129558,31.11357607909332,34.37135278514589,2015-09-27
2279086,2015,3,1,7,DL,Delta Air Lines Inc.,1144,N922DX,DTW,DCA,15:20:00,17:23:00,123.0,34.0,17:57:00,87.0,95.0,56.0,405,18:53:00,5.0,16:47:00,18:58:00,131.0,0,0,,8.0,0.0,123.0,0.0,0.0,True,Detroit Metropolitan Airport,Detroit,MI,42.21206,-83.34884,Ronald Reagan Washington National Airport,Arlington,VA,38.85208,-77.03772,33.438709677419354,31.526032909787492,35.202447562084835,2015-03-01
653238,2015,12,12,6,WN,Southwest Airlines Co.,3737,N924WN,OAK,MDW,05:30:00,05:25:00,-5.0,10.0,05:35:00,240.0,234.0,219.0,1844,11:14:00,5.0,11:30:00,11:19:00,-11.0,0,0,,0.0,0.0,0.0,0.0,0.0,False,Oakland International Airport,Oakland,CA,37.72129,-122.22072,Chicago Midway International Airport,Chicago,IL,41.78598,-87.75242,43.503639285376686,24.403281003856808,25.718507251887665,2015-12-12
2426990,2015,7,9,4,B6,JetBlue Airways,2783,N193JB,BOS,RDU,14:19:00,14:17:00,-2.0,11.0,14:28:00,114.0,103.0,88.0,612,15:56:00,4.0,16:13:00,16:00:00,-13.0,0,0,,0.0,0.0,0.0,0.0,0.0,False,Gen. Edward Lawrence Logan International Airport,Boston,MA,42.36435,-71.00518,Raleigh-Durham International Airport,Raleigh,NC,35.87764,-78.78747,35.91662262278969,30.034774751516718,35.44770879049955,2015-07-09
5010328,2015,7,17,5,EV,Atlantic Southeast Airlines,5134,N716EV,FAR,MSP,13:10:00,12:59:00,-11.0,13.0,13:12:00,60.0,65.0,42.0,223,13:54:00,10.0,14:10:00,14:04:00,-6.0,0,0,,0.0,0.0,0.0,0.0,0.0,False,Hector International Airport,Fargo,ND,46.91935,-96.81499,Minneapolis-Saint Paul International Airport,Minneapolis,MN,44.88055,-93.21692,34.93764271912875,29.420814479638008,36.5052790346908,2015-07-17
2511896,2015,4,11,6,WN,Southwest Airlines Co.,2230,N424WN,BWI,CLE,08:25:00,08:20:00,-5.0,11.0,08:31:00,80.0,69.0,54.0,314,09:25:00,4.0,09:45:00,09:29:00,-16.0,0,0,,0.0,0.0,0.0,0.0,0.0,False,Baltimore-Washington International Airport,Baltimore,MD,39.1754,-76.6682,Cleveland Hopkins International Airport,Cleveland,OH,41.41089,-81.8494,40.6359274619826,33.50378798707796,34.14837473912919,2015-04-11
826441,2015,8,11,2,OO,Skywest Airlines Inc.,4555,N823AS,SLC,RDM,11:15:00,11:14:00,-1.0,20.0,11:34:00,108.0,100.0,76.0,525,11:50:00,4.0,12:03:00,11:54:00,-9.0,0,0,,0.0,0.0,0.0,0.0,0.0,False,Salt Lake City International Airport,Salt Lake City,UT,40.78839,-111.97777,Redmond Municipal Airport (Roberts Field),Redmond,OR,44.25407,-121.14996,31.977162843328877,22.10020910406949,25.83927939520669,2015-08-11
3336563,2015,11,2,1,DL,Delta Air Lines Inc.,28,N902DE,MSY,ATL,15:15:00,15:43:00,28.0,15.0,15:58:00,84.0,89.0,62.0,425,18:00:00,12.0,17:39:00,18:12:00,33.0,0,0,,5.0,0.0,6.0,22.0,0.0,True,Louis Armstrong New Orleans International Airport,New Orleans,LA,29.99339,-90.25803,Hartsfield-Jackson Atlanta International Airport,Atlanta,GA,33.64044,-84.42694,32.932171941037005,31.985601377259567,33.97769778542922,2015-11-02
3159095,2015,11,15,7,EV,Atlantic Southeast Airlines,5502,N676CA,ATL,BTR,17:53:00,17:47:00,-6.0,18.0,18:05:00,96.0,96.0,74.0,448,18:19:00,4.0,18:29:00,18:23:00,-6.0,0,0,,0.0,0.0,0.0,0.0,0.0,False,Hartsfield-Jackson Atlanta International Airport,Atlanta,GA,33.64044,-84.42694,Baton Rouge Metropolitan Airport,Baton Rouge,LA,30.53316,-91.14963,33.119976011717355,30.210617034612437,31.051239640643498,2015-11-15
2376933,2015,8,26,3,UA,United Air Lines Inc.,1796,N35271,BOS,SFO,07:25:00,07:22:00,-3.0,21.0,07:43:00,395.0,395.0,351.0,2704,10:34:00,23.0,11:00:00,10:57:00,-3.0,0,0,,0.0,0.0,0.0,0.0,0.0,False,Gen. Edward Lawrence Logan International Airport,Boston,MA,42.36435,-71.00518,San Francisco International Airport,San Francisco,CA,37.619,-122.37484,35.91662262278969,30.034774751516718,35.44770879049955,2015-08-26
3012548,2015,7,13,1,DL,Delta Air Lines Inc.,1463,N343NB,ATL,CHS,10:56:00,10:53:00,-3.0,16.0,11:09:00,71.0,60.0,40.0,259,11:49:00,4.0,12:07:00,11:53:00,-14.0,0,0,,0.0,0.0,0.0,0.0,0.0,False,Hartsfield-Jackson Atlanta International Airport,Atlanta,GA,33.64044,-84.42694,Charleston International Airport/Charleston AFB,Charleston,SC,32.89865,-80.04051,33.119976011717355,30.210617034612437,31.051239640643498,2015-07-13
1813406,2015,12,14,1,MQ,American Eagle Airlines Inc.,3352,N658MQ,ORD,LSE,16:55:00,16:51:00,-4.0,14.0,17:05:00,72.0,63.0,44.0,215,17:49:00,5.0,18:07:00,17:54:00,-13.0,0,0,,0.0,0.0,0.0,0.0,0.0,False,Chicago O'Hare International Airport,Chicago,IL,41.9796,-87.90446,La Crosse Regional Airport,La Crosse,WI,43.87938,-91.25654,39.62481286116047,37.05203873553376,39.5671030446412,2015-12-14
1410675,2015,12,7,1,UA,United Air Lines Inc.,3,N454UA,SNA,IAH,13:04:00,13:10:00,6.0,8.0,13:18:00,192.0,186.0,169.0,1346,18:07:00,9.0,18:16:00,18:16:00,0.0,0,0,,0.0,0.0,0.0,0.0,0.0,False,John Wayne Airport (Orange County Airport),Santa Ana,CA,33.67566,-117.86822,George Bush Intercontinental Airport,Houston,TX,29.98047,-95.33972,33.57624976470272,24.8395002402691,26.03684126221368,2015-12-07
3679942,2015,3,17,2,WN,Southwest Airlines Co.,2007,N708SW,BNA,CMH,10:00:00,09:56:00,-4.0,15.0,10:11:00,70.0,72.0,51.0,337,12:02:00,6.0,12:10:00,12:08:00,-2.0,0,0,,0.0,0.0,0.0,0.0,0.0,False,Nashville International Airport,Nashville,TN,36.12448,-86.67818,Port Columbus International Airport,Columbus,OH,39.99799,-82.89188,35.19966372425389,31.188619536661093,33.12610460950561,2015-03-17
406251,2015,11,13,5,AA,American Airlines Inc.,528,N765US,PHX,RNO,21:05:00,20:57:00,-8.0,18.0,21:15:00,114.0,102.0,80.0,601,21:35:00,4.0,21:59:00,21:39:00,-20.0,0,0,,0.0,0.0,0.0,0.0,0.0,False,Phoenix Sky Harbor International Airport,Phoenix,AZ,33.43417,-112.00806,Reno/Tahoe International Airport,Reno,NV,39.49858,-119.76806,39.69076729217042,24.887578940142777,26.8585255354201,2015-11-13
2036849,2015,3,11,3,AA,American Airlines Inc.,901,N598AA,DFW,PNS,13:25:00,13:19:00,-6.0,13.0,13:32:00,108.0,102.0,84.0,604,14:56:00,5.0,15:13:00,15:01:00,-12.0,0,0,,0.0,0.0,0.0,0.0,0.0,False,Dallas/Fort Worth International Airport,Dallas-Fort Worth,TX,32.89595,-97.0372,Pensacola International Airport (Pensacola Gulf Coast Regional Airport),Pensacola,FL,30.47331,-87.18744,38.84517284419602,32.11307412900037,34.16857953446386,2015-03-11
3375089,2015,3,24,2,DL,Delta Air Lines Inc.,2026,N534US,FLL,ATL,12:55:00,12:54:00,-1.0,21.0,13:15:00,124.0,115.0,87.0,581,14:42:00,7.0,14:59:00,14:49:00,-10.0,0,0,,0.0,0.0,0.0,0.0,0.0,False,Fort Lauderdale-Hollywood International Airport,Ft. Lauderdale,FL,26.07258,-80.15275,Hartsfield-Jackson Atlanta International Airport,Atlanta,GA,33.64044,-84.42694,33.64663696620667,35.856935249475214,36.71108509607622,2015-03-24
3778395,2015,12,27,7,DL,Delta Air Lines Inc.,412,N911DL,MIA,JFK,15:15:00,15:12:00,-3.0,15.0,15:27:00,187.0,171.0,149.0,1089,17:56:00,7.0,18:22:00,18:03:00,-19.0,0,0,,0.0,0.0,0.0,0.0,0.0,False,Miami International Airport,Miami,FL,25.79325,-80.29056,John F. Kennedy International Airport (New York International Airport),New York,NY,40.63975,-73.77893,39.97634876912649,33.7487012987013,35.63037518037518,2015-12-27
1657591,2015,8,8,6,AA,American Airlines Inc.,1205,N3MHAA,ORD,BOS,17:00:00,16:53:00,-7.0,12.0,17:05:00,154.0,133.0,110.0,867,19:55:00,11.0,20:34:00,20:06:00,-28.0,0,0,,0.0,0.0,0.0,0.0,0.0,False,Chicago O'Hare International Airport,Chicago,IL,41.9796,-87.90446,Gen. Edward Lawrence Logan International Airport,Boston,MA,42.36435,-71.00518,39.62481286116047,37.05203873553376,39.5671030446412,2015-08-08
1190276,2015,8,6,4,EV,Atlantic Southeast Airlines,5058,N676CA,MSP,CLE,19:12:00,19:09:00,-3.0,24.0,19:33:00,111.0,111.0,80.0,622,21:53:00,7.0,22:03:00,22:00:00,-3.0,0,0,,0.0,0.0,0.0,0.0,0.0,False,Minneapolis-Saint Paul International Airport,Minneapolis,MN,44.88055,-93.21692,Cleveland Hopkins International Airport,Cleveland,OH,41.41089,-81.8494,33.48377141735865,25.80892890439786,30.049758930236276,2015-08-06
3375610,2015,4,28,2,DL,Delta Air Lines Inc.,1627,N834DN,FLL,ATL,11:50:00,11:48:00,-2.0,18.0,12:06:00,129.0,112.0,85.0,581,13:31:00,9.0,13:59:00,13:40:00,-19.0,0,0,,0.0,0.0,0.0,0.0,0.0,False,Fort Lauderdale-Hollywood International Airport,Ft. Lauderdale,FL,26.07258,-80.15275,Hartsfield-Jackson Atlanta International Airport,Atlanta,GA,33.64044,-84.42694,33.64663696620667,35.856935249475214,36.71108509607622,2015-04-28
1631581,2015,4,23,4,UA,United Air Lines Inc.,1611,N37255,ORD,MCO,10:45:00,10:40:00,-5.0,18.0,10:58:00,161.0,144.0,118.0,1005,13:56:00,8.0,14:26:00,14:04:00,-22.0,0,0,,0.0,0.0,0.0,0.0,0.0,False,Chicago O'Hare International Airport,Chicago,IL,41.9796,-87.90446,Orlando International Airport,Orlando,FL,28.42889,-81.31603,39.62481286116047,37.05203873553376,39.5671030446412,2015-04-23
704258,2015,3,17,2,UA,United Air Lines Inc.,526,N497UA,SAN,SFO,11:57:00,11:56:00,-1.0,14.0,12:10:00,104.0,90.0,64.0,447,13:14:00,12.0,13:41:00,13:26:00,-15.0,0,0,,0.0,0.0,0.0,0.0,0.0,False,San Diego International Airport (Lindbergh Field),San Diego,CA,32.73356,-117.18966,San Francisco International Airport,San Francisco,CA,37.619,-122.37484,35.70156821969319,27.828645521643725,29.56233792140435,2015-03-17
4400056,2015,7,31,5,EV,Atlantic Southeast Airlines,5665,N11150,LIT,IAH,18:43:00,18:34:00,-9.0,15.0,18:49:00,92.0,79.0,59.0,374,19:48:00,5.0,20:15:00,19:53:00,-22.0,0,0,,0.0,0.0,0.0,0.0,0.0,False,Bill and Hillary Clinton National Airport (Adams Field),Little Rock,AR,34.7294,-92.22425,George Bush Intercontinental Airport,Houston,TX,29.98047,-95.33972,34.83976204183458,32.92701735059212,38.39686036904434,2015-07-31
3806948,2015,12,29,2,DL,Delta Air Lines Inc.,1582,N961DL,OMA,ATL,18:10:00,18:05:00,-5.0,16.0,18:21:00,130.0,133.0,110.0,821,21:11:00,7.0,21:20:00,21:18:00,-2.0,0,0,,0.0,0.0,0.0,0.0,0.0,False,Eppley Airfield,Omaha,NE,41.30252,-95.89417,Hartsfield-Jackson Atlanta International Airport,Atlanta,GA,33.64044,-84.42694,33.355219960604074,30.37491052254832,34.71528274874731,2015-12-29
4249729,2015,4,4,6,B6,JetBlue Airways,1006,N599JB,LGB,SEA,14:09:00,14:08:00,-1.0,10.0,14:18:00,159.0,147.0,130.0,965,16:28:00,7.0,16:48:00,16:35:00,-13.0,0,0,,0.0,0.0,0.0,0.0,0.0,False,Long Beach Airport (Daugherty Field),Long Beach,CA,33.81772,-118.15161,Seattle-Tacoma International Airport,Seattle,WA,47.44898,-122.30931,33.89540845391364,29.95764705882353,32.661848739495795,2015-04-04
312142,2015,2,6,5,OO,Skywest Airlines Inc.,4700,N804SK,PHX,SLC,08:35:00,08:28:00,-7.0,22.0,08:50:00,105.0,107.0,77.0,507,10:07:00,8.0,10:20:00,10:15:00,-5.0,0,0,,0.0,0.0,0.0,0.0,0.0,False,Phoenix Sky Harbor International Airport,Phoenix,AZ,33.43417,-112.00806,Salt Lake City International Airport,Salt Lake City,UT,40.78839,-111.97777,39.69076729217042,24.887578940142777,26.8585255354201,2015-02-06
480612,2015,7,10,5,UA,United Air Lines Inc.,1647,N66814,DEN,IAH,09:56:00,09:54:00,-2.0,13.0,10:07:00,147.0,140.0,120.0,862,13:07:00,7.0,13:23:00,13:14:00,-9.0,0,0,,0.0,0.0,0.0,0.0,0.0,False,Denver International Airport,Denver,CO,39.85841,-104.667,George Bush Intercontinental Airport,Houston,TX,29.98047,-95.33972,41.19048226263038,30.891128832532566,32.91439645351429,2015-07-10
3668526,2015,12,18,5,WN,Southwest Airlines Co.,5224,N245WN,BNA,MCI,22:05:00,22:11:00,6.0,10.0,22:21:00,100.0,97.0,84.0,491,23:45:00,3.0,23:45:00,23:48:00,3.0,0,0,,0.0,0.0,0.0,0.0,0.0,True,Nashville International Airport,Nashville,TN,36.12448,-86.67818,Kansas City International Airport,Kansas City,MO,39.29761,-94.71391,35.19966372425389,31.188619536661093,33.12610460950561,2015-12-18
2520915,2015,8,2,7,WN,Southwest Airlines Co.,2411,N900WN,BWI,PIT,16:15:00,16:15:00,0.0,9.0,16:24:00,60.0,50.0,35.0,210,16:59:00,6.0,17:15:00,17:05:00,-10.0,0,0,,0.0,0.0,0.0,0.0,0.0,False,Baltimore-Washington International Airport,Baltimore,MD,39.1754,-76.6682,Pittsburgh International Airport,Pittsburgh,PA,40.49147,-80.23287,40.6359274619826,33.50378798707796,34.14837473912919,2015-08-02
353142,2015,5,17,7,US,US Airways Inc.,647,N673AW,PHX,ONT,10:15:00,10:10:00,-5.0,19.0,10:29:00,78.0,81.0,51.0,325,11:20:00,11.0,11:33:00,11:31:00,-2.0,0,0,,0.0,0.0,0.0,0.0,0.0,False,Phoenix Sky Harbor International Airport,Phoenix,AZ,33.43417,-112.00806,Ontario International Airport,Ontario,CA,34.056,-117.60119,39.69076729217042,24.887578940142777,26.8585255354201,2015-05-17
1089092,2015,3,22,7,WN,Southwest Airlines Co.,898,N738CB,EWR,MDW,18:25:00,19:29:00,64.0,19.0,19:48:00,150.0,140.0,115.0,711,20:43:00,6.0,19:55:00,20:49:00,54.0,0,0,,0.0,0.0,2.0,52.0,0.0,True,Newark Liberty International Airport,Newark,NJ,40.6925,-74.16866,Chicago Midway International Airport,Chicago,IL,41.78598,-87.75242,35.37908265534725,39.0636838304727,39.73129478420263,2015-03-22
2670712,2015,6,22,1,US,US Airways Inc.,1848,N833AW,PHL,DFW,11:40:00,12:04:00,24.0,15.0,12:19:00,211.0,198.0,170.0,1303,14:09:00,13.0,14:11:00,14:22:00,11.0,0,0,,0.0,0.0,0.0,0.0,0.0,True,Philadelphia International Airport,Philadelphia,PA,39.87195,-75.24114,Dallas/Fort Worth International Airport,Dallas-Fort Worth,TX,32.89595,-97.0372,36.76708925947805,31.431943643404466,37.827552113372334,2015-06-22
2827107,2015,11,17,2,UA,United Air Lines Inc.,575,N17244,IAH,LGA,19:02:00,19:52:00,50.0,15.0,20:07:00,208.0,192.0,174.0,1416,00:01:00,3.0,23:30:00,00:04:00,34.0,0,0,,0.0,0.0,0.0,26.0,8.0,True,George Bush Intercontinental Airport,Houston,TX,29.98047,-95.33972,LaGuardia Airport (Marine Air Terminal),New York,NY,40.77724,-73.87261,40.8015168255787,30.773569136132657,32.97609654987965,2015-11-17
3189195,2015,5,17,7,EV,Atlantic Southeast Airlines,4959,N859AS,ATL,TLH,13:43:00,13:43:00,0.0,28.0,14:11:00,64.0,80.0,49.0,223,15:00:00,3.0,14:47:00,15:03:00,16.0,0,0,,16.0,0.0,0.0,0.0,0.0,True,Hartsfield-Jackson Atlanta International Airport,Atlanta,GA,33.64044,-84.42694,Tallahassee International Airport,Tallahassee,FL,30.39653,-84.35033,33.119976011717355,30.210617034612437,31.051239640643498,2015-05-17
1401057,2015,4,17,5,OO,Skywest Airlines Inc.,4742,N821SK,SNA,SLC,07:05:00,06:59:00,-6.0,19.0,07:18:00,121.0,125.0,98.0,588,09:56:00,8.0,10:06:00,10:04:00,-2.0,0,0,,0.0,0.0,0.0,0.0,0.0,False,John Wayne Airport (Orange County Airport),Santa Ana,CA,33.67566,-117.86822,Salt Lake City International Airport,Salt Lake City,UT,40.78839,-111.97777,33.57624976470272,24.8395002402691,26.03684126221368,2015-04-17
3812799,2015,5,29,5,WN,Southwest Airlines Co.,225,N8611F,OMA,STL,06:35:00,06:45:00,10.0,9.0,06:54:00,85.0,63.0,49.0,342,07:43:00,5.0,08:00:00,07:48:00,-12.0,0,0,,0.0,0.0,0.0,0.0,0.0,False,Eppley Airfield,Omaha,NE,41.30252,-95.89417,St. Louis International Airport at Lambert Field,St Louis,MO,38.74769,-90.35999,33.355219960604074,30.37491052254832,34.71528274874731,2015-05-29
3269895,2015,5,6,3,WN,Southwest Airlines Co.,327,N645SW,TPA,MHT,09:15:00,09:19:00,4.0,9.0,09:28:00,175.0,168.0,154.0,1204,12:02:00,5.0,12:10:00,12:07:00,-3.0,0,0,,0.0,0.0,0.0,0.0,0.0,False,Tampa International Airport,Tampa,FL,27.97547,-82.53325,Manchester-Boston Regional Airport,Manchester,NH,42.93452,-71.43706,34.538228022407914,34.06551286698079,35.62527183762233,2015-05-06
2145486,2015,9,3,4,HA,Hawaiian Airlines Inc.,305,N476HA,OGG,HNL,10:37:00,11:01:00,24.0,16.0,11:17:00,36.0,62.0,42.0,100,11:59:00,4.0,11:13:00,12:03:00,50.0,0,0,,0.0,0.0,6.0,18.0,26.0,True,Kahului Airport,Kahului,HI,20.89865,-156.43046,Honolulu International Airport,Honolulu,HI,21.31869,-157.92241,38.15872400252097,16.84220556473129,20.653792402490154,2015-09-03
1124173,2015,7,19,7,DL,Delta Air Lines Inc.,2107,N392DA,MSP,ORD,19:51:00,19:48:00,-3.0,18.0,20:06:00,85.0,74.0,50.0,334,20:56:00,6.0,21:16:00,21:02:00,-14.0,0,0,,0.0,0.0,0.0,0.0,0.0,False,Minneapolis-Saint Paul International Airport,Minneapolis,MN,44.88055,-93.21692,Chicago O'Hare International Airport,Chicago,IL,41.9796,-87.90446,33.48377141735865,25.80892890439786,30.049758930236276,2015-07-19
4189378,2015,8,11,2,DL,Delta Air Lines Inc.,1279,N927AT,DAL,ATL,10:00:00,10:07:00,7.0,10.0,10:17:00,134.0,118.0,99.0,721,12:56:00,9.0,13:14:00,13:05:00,-9.0,0,0,,0.0,0.0,0.0,0.0,0.0,False,Dallas Love Field,Dallas,TX,32.84711,-96.85177,Hartsfield-Jackson Atlanta International Airport,Atlanta,GA,33.64044,-84.42694,44.57696108812543,27.40365248759958,28.329888771982564,2015-08-11
2129128,2015,4,11,6,HA,Hawaiian Airlines Inc.,344,N483HA,LIH,HNL,13:07:00,13:02:00,-5.0,6.0,13:08:00,34.0,36.0,23.0,102,13:31:00,7.0,13:41:00,13:38:00,-3.0,0,0,,0.0,0.0,0.0,0.0,0.0,False,Lihue Airport,Lihue,HI,21.97598,-159.33896,Honolulu International Airport,Honolulu,HI,21.31869,-157.92241,32.11948790896159,15.180690876882197,19.329790374963093,2015-04-11
1976799,2015,4,3,5,AA,American Airlines Inc.,2355,N4YMAA,DFW,OKC,15:17:00,15:46:00,29.0,14.0,16:00:00,65.0,49.0,30.0,175,16:30:00,5.0,16:22:00,16:35:00,13.0,0,0,,0.0,0.0,0.0,0.0,0.0,True,Dallas/Fort Worth International Airport,Dallas-Fort Worth,TX,32.89595,-97.0372,Will Rogers World Airport,Oklahoma City,OK,35.39309,-97.60073,38.84517284419602,32.11307412900037,34.16857953446386,2015-04-03
562103,2015,1,10,6,WN,Southwest Airlines Co.,4348,N7736A,DEN,MDW,19:55:00,19:56:00,1.0,12.0,20:08:00,135.0,124.0,107.0,895,22:55:00,5.0,23:10:00,23:00:00,-10.0,0,0,,0.0,0.0,0.0,0.0,0.0,False,Denver International Airport,Denver,CO,39.85841,-104.667,Chicago Midway International Airport,Chicago,IL,41.78598,-87.75242,41.19048226263038,30.891128832532566,32.91439645351429,2015-01-10
4321946,2015,1,5,1,UA,United Air Lines Inc.,1695,N12225,SEA,EWR,22:05:00,22:11:00,6.0,18.0,22:29:00,297.0,279.0,255.0,2402,05:44:00,6.0,06:02:00,05:50:00,-12.0,0,0,,0.0,0.0,0.0,0.0,0.0,False,Seattle-Tacoma International Airport,Seattle,WA,47.44898,-122.30931,Newark Liberty International Airport,Newark,NJ,40.6925,-74.16866,39.265457758861665,20.77834424158916,24.431071305545988,2015-01-05
77720,2015,8,16,7,AS,Alaska Airlines Inc.,457,N618AS,LAX,SEA,17:40:00,17:38:00,-2.0,12.0,17:50:00,155.0,149.0,128.0,954,19:58:00,9.0,20:15:00,20:07:00,-8.0,0,0,,0.0,0.0,0.0,0.0,0.0,False,Los Angeles International Airport,Los Angeles,CA,33.94254,-118.40807,Seattle-Tacoma International Airport,Seattle,WA,47.44898,-122.30931,40.92041526046242,28.434892858487842,30.50851734223773,2015-08-16
515616,2015,8,25,2,DL,Delta Air Lines Inc.,1610,N948DN,DEN,DTW,06:30:00,06:31:00,1.0,18.0,06:49:00,169.0,169.0,142.0,1123,11:11:00,9.0,11:19:00,11:20:00,1.0,0,0,,0.0,0.0,0.0,0.0,0.0,True,Denver International Airport,Denver,CO,39.85841,-104.667,Detroit Metropolitan Airport,Detroit,MI,42.21206,-83.34884,41.19048226263038,30.891128832532566,32.91439645351429,2015-08-25
1132493,2015,9,21,1,DL,Delta Air Lines Inc.,662,N130DL,MSP,LAX,17:49:00,18:00:00,11.0,14.0,18:14:00,237.0,216.0,190.0,1535,19:24:00,12.0,19:46:00,19:36:00,-10.0,0,0,,0.0,0.0,0.0,0.0,0.0,False,Minneapolis-Saint Paul International Airport,Minneapolis,MN,44.88055,-93.21692,Los Angeles International Airport,Los Angeles,CA,33.94254,-118.40807,33.48377141735865,25.80892890439786,30.049758930236276,2015-09-21
2065599,2015,5,23,6,MQ,American Eagle Airlines Inc.,3224,N622MQ,DFW,VPS,10:15:00,10:12:00,-3.0,14.0,10:26:00,117.0,106.0,82.0,641,11:48:00,10.0,12:12:00,11:58:00,-14.0,0,0,,0.0,0.0,0.0,0.0,0.0,False,Dallas/Fort Worth International Airport,Dallas-Fort Worth,TX,32.89595,-97.0372,Destin-Fort Walton Beach Airport/Eglin AFB,Valparaiso,FL,30.48325,-86.5254,38.84517284419602,32.11307412900037,34.16857953446386,2015-05-23
3189864,2015,1,23,5,EV,Atlantic Southeast Airlines,5485,N878AS,ATL,AEX,09:56:00,09:53:00,-3.0,10.0,10:03:00,106.0,114.0,100.0,500,10:43:00,4.0,10:42:00,10:47:00,5.0,0,0,,0.0,0.0,0.0,0.0,0.0,True,Hartsfield-Jackson Atlanta International Airport,Atlanta,GA,33.64044,-84.42694,Alexandria International Airport,Alexandria,LA,31.32737,-92.54856,33.119976011717355,30.210617034612437,31.051239640643498,2015-01-23
2769625,2015,8,21,5,UA,United Air Lines Inc.,380,N465UA,IAH,MCO,10:24:00,10:26:00,2.0,49.0,11:15:00,144.0,177.0,123.0,854,14:18:00,5.0,13:48:00,14:23:00,35.0,0,0,,35.0,0.0,0.0,0.0,0.0,True,George Bush Intercontinental Airport,Houston,TX,29.98047,-95.33972,Orlando International Airport,Orlando,FL,28.42889,-81.31603,40.8015168255787,30.773569136132657,32.97609654987965,2015-08-21
1550394,2015,4,29,3,US,US Airways Inc.,2174,N950UW,DCA,LGA,19:00:00,18:54:00,-6.0,86.0,20:20:00,90.0,132.0,41.0,214,21:01:00,5.0,20:30:00,21:06:00,36.0,0,0,,36.0,0.0,0.0,0.0,0.0,True,Ronald Reagan Washington National Airport,Arlington,VA,38.85208,-77.03772,LaGuardia Airport (Marine Air Terminal),New York,NY,40.77724,-73.87261,32.96609480445565,29.93237966045957,36.55917293542155,2015-04-29
168651,2015,4,12,7,VX,Virgin America,166,N631VA,LAX,EWR,12:55:00,12:55:00,0.0,14.0,13:09:00,310.0,307.0,286.0,2454,20:55:00,7.0,21:05:00,21:02:00,-3.0,0,0,,0.0,0.0,0.0,0.0,0.0,False,Los Angeles International Airport,Los Angeles,CA,33.94254,-118.40807,Newark Liberty International Airport,Newark,NJ,40.6925,-74.16866,40.92041526046242,28.434892858487842,30.50851734223773,2015-04-12
3513185,2015,5,15,5,F9,Frontier Airlines Inc.,1309,N216FR,IAD,ORD,09:25:00,09:19:00,-6.0,16.0,09:35:00,115.0,115.0,91.0,589,10:06:00,8.0,10:20:00,10:14:00,-6.0,0,0,,0.0,0.0,0.0,0.0,0.0,False,Washington Dulles International Airport,Chantilly,VA,38.94453,-77.45581,Chicago O'Hare International Airport,Chicago,IL,41.9796,-87.90446,35.36802215420492,37.588972224511664,40.98648314514135,2015-05-15
1110867,2015,3,22,7,EV,Atlantic Southeast Airlines,5797,N11199,EWR,RIC,11:49:00,12:21:00,32.0,18.0,12:39:00,82.0,74.0,52.0,277,13:31:00,4.0,13:11:00,13:35:00,24.0,0,0,,0.0,0.0,24.0,0.0,0.0,True,Newark Liberty International Airport,Newark,NJ,40.6925,-74.16866,Richmond International Airport,Richmond,VA,37.50517,-77.31967,35.37908265534725,39.0636838304727,39.73129478420263,2015-03-22
871858,2015,5,30,6,WN,Southwest Airlines Co.,2623,N363SW,SJC,SAN,10:40:00,10:34:00,-6.0,8.0,10:42:00,80.0,80.0,69.0,417,11:51:00,3.0,12:00:00,11:54:00,-6.0,0,0,,0.0,0.0,0.0,0.0,0.0,False,Norman Y. Mineta San José International Airport,San Jose,CA,37.36186,-121.92901,San Diego International Airport (Lindbergh Field),San Diego,CA,32.73356,-117.18966,39.416230366492144,23.428438599986716,26.254898054061233,2015-05-30
4613537,2015,8,11,2,B6,JetBlue Airways,1271,N635JB,LGA,FLL,19:45:00,22:30:00,165.0,22.0,22:52:00,182.0,169.0,140.0,1076,01:12:00,7.0,22:47:00,01:19:00,152.0,0,0,,0.0,0.0,12.0,140.0,0.0,True,LaGuardia Airport (Marine Air Terminal),New York,NY,40.77724,-73.87261,Fort Lauderdale-Hollywood International Airport,Ft. Lauderdale,FL,26.07258,-80.15275,36.37969981426635,38.468567170769404,43.40197593553372,2015-08-11
1184550,2015,3,4,3,DL,Delta Air Lines Inc.,2318,N369NB,MSP,BZN,11:25:00,11:56:00,31.0,12.0,12:08:00,144.0,137.0,121.0,874,13:09:00,4.0,12:49:00,13:13:00,24.0,0,0,,0.0,0.0,1.0,23.0,0.0,True,Minneapolis-Saint Paul International Airport,Minneapolis,MN,44.88055,-93.21692,Bozeman Yellowstone International Airport (Gallatin Field Airport),Bozeman,MT,45.7769,-111.15301,33.48377141735865,25.80892890439786,30.049758930236276,2015-03-04
27903,2015,7,30,4,AS,Alaska Airlines Inc.,423,N519AS,PDX,SEA,07:00:00,07:01:00,1.0,14.0,07:15:00,44.0,46.0,25.0,129,07:40:00,7.0,07:44:00,07:47:00,3.0,0,0,,0.0,0.0,0.0,0.0,0.0,True,Portland International Airport,Portland,OR,45.58872,-122.5975,Seattle-Tacoma International Airport,Seattle,WA,47.44898,-122.30931,32.088775618562174,24.357336686743,27.290224369581043,2015-07-30
1887795,2015,4,16,4,AA,American Airlines Inc.,1202,N3JYAA,DFW,DEN,12:35:00,12:31:00,-4.0,19.0,12:50:00,129.0,122.0,98.0,641,13:28:00,5.0,13:44:00,13:33:00,-11.0,0,0,,0.0,0.0,0.0,0.0,0.0,False,Dallas/Fort Worth International Airport,Dallas-Fort Worth,TX,32.89595,-97.0372,Denver International Airport,Denver,CO,39.85841,-104.667,38.84517284419602,32.11307412900037,34.16857953446386,2015-04-16
33429,2015,7,17,5,AS,Alaska Airlines Inc.,821,N586AS,PDX,HNL,18:35:00,18:26:00,-9.0,12.0,18:38:00,347.0,340.0,317.0,2603,20:55:00,11.0,21:22:00,21:06:00,-16.0,0,0,,0.0,0.0,0.0,0.0,0.0,False,Portland International Airport,Portland,OR,45.58872,-122.5975,Honolulu International Airport,Honolulu,HI,21.31869,-157.92241,32.088775618562174,24.357336686743,27.290224369581043,2015-07-17
3570921,2015,5,24,7,DL,Delta Air Lines Inc.,245,N3768,JFK,SLC,19:35:00,19:34:00,-1.0,23.0,19:57:00,325.0,295.0,266.0,1990,22:23:00,6.0,23:00:00,22:29:00,-31.0,0,0,,0.0,0.0,0.0,0.0,0.0,False,John F. Kennedy International Airport (New York International Airport),New York,NY,40.63975,-73.77893,Salt Lake City International Airport,Salt Lake City,UT,40.78839,-111.97777,35.68451460916097,35.763532082686105,41.01123192735094,2015-05-24
1614990,2015,4,1,3,UA,United Air Lines Inc.,1524,N87513,ORD,IAH,07:30:00,07:48:00,18.0,19.0,08:07:00,176.0,162.0,129.0,925,10:16:00,14.0,10:26:00,10:30:00,4.0,0,0,,0.0,0.0,0.0,0.0,0.0,True,Chicago O'Hare International Airport,Chicago,IL,41.9796,-87.90446,George Bush Intercontinental Airport,Houston,TX,29.98047,-95.33972,39.62481286116047,37.05203873553376,39.5671030446412,2015-04-01
2151526,2015,5,21,4,AA,American Airlines Inc.,6,N394AA,OGG,DFW,17:15:00,17:17:00,2.0,9.0,17:26:00,436.0,395.0,379.0,3711,04:45:00,7.0,05:31:00,04:52:00,-39.0,0,0,,0.0,0.0,0.0,0.0,0.0,False,Kahului Airport,Kahului,HI,20.89865,-156.43046,Dallas/Fort Worth International Airport,Dallas-Fort Worth,TX,32.89595,-97.0372,38.15872400252097,16.84220556473129,20.653792402490154,2015-05-21
4294103,2015,9,18,5,VX,Virgin America,798,N282VA,SEA,LAX,17:40:00,18:18:00,38.0,14.0,18:32:00,155.0,141.0,117.0,954,20:29:00,10.0,20:15:00,20:39:00,24.0,0,0,,0.0,0.0,4.0,20.0,0.0,True,Seattle-Tacoma International Airport,Seattle,WA,47.44898,-122.30931,Los Angeles International Airport,Los Angeles,CA,33.94254,-118.40807,39.265457758861665,20.77834424158916,24.431071305545988,2015-09-18
4609329,2015,3,16,1,DL,Delta Air Lines Inc.,1288,N931DL,LGA,FLL,09:00:00,09:03:00,3.0,23.0,09:26:00,203.0,161.0,135.0,1076,11:41:00,3.0,12:23:00,11:44:00,-39.0,0,0,,0.0,0.0,0.0,0.0,0.0,False,LaGuardia Airport (Marine Air Terminal),New York,NY,40.77724,-73.87261,Fort Lauderdale-Hollywood International Airport,Ft. Lauderdale,FL,26.07258,-80.15275,36.37969981426635,38.468567170769404,43.40197593553372,2015-03-16
3254091,2015,9,14,1,B6,JetBlue Airways,426,N661JB,TPA,JFK,18:15:00,18:30:00,15.0,10.0,18:40:00,167.0,148.0,129.0,1005,20:49:00,9.0,21:02:00,20:58:00,-4.0,0,0,,0.0,0.0,0.0,0.0,0.0,False,Tampa International Airport,Tampa,FL,27.97547,-82.53325,John F. Kennedy International Airport (New York International Airport),New York,NY,40.63975,-73.77893,34.538228022407914,34.06551286698079,35.62527183762233,2015-09-14
3318679,2015,1,25,7,WN,Southwest Airlines Co.,260,N392SW,STL,DAL,18:35:00,18:41:00,6.0,7.0,18:48:00,105.0,82.0,72.0,546,20:00:00,3.0,20:20:00,20:03:00,-17.0,0,0,,0.0,0.0,0.0,0.0,0.0,False,St. Louis International Airport at Lambert Field,St Louis,MO,38.74769,-90.35999,Dallas Love Field,Dallas,TX,32.84711,-96.85177,35.779230458020145,31.053561863952865,32.371719335832886,2015-01-25
2858737,2015,7,13,1,EV,Atlantic Southeast Airlines,5671,N22909,IAH,LCH,12:50:00,12:46:00,-4.0,14.0,13:00:00,54.0,43.0,25.0,127,13:25:00,4.0,13:44:00,13:29:00,-15.0,0,0,,0.0,0.0,0.0,0.0,0.0,False,George Bush Intercontinental Airport,Houston,TX,29.98047,-95.33972,Lake Charles Regional Airport,Lake Charles,LA,30.1261,-93.2234,40.8015168255787,30.773569136132657,32.97609654987965,2015-07-13
4369210,2015,6,5,5,US,US Airways Inc.,1925,N551UW,SEA,CLT,00:25:00,00:19:00,-6.0,12.0,00:31:00,297.0,289.0,265.0,2279,07:56:00,12.0,08:22:00,08:08:00,-14.0,0,0,,0.0,0.0,0.0,0.0,0.0,False,Seattle-Tacoma International Airport,Seattle,WA,47.44898,-122.30931,Charlotte Douglas International Airport,Charlotte,NC,35.21401,-80.94313,39.265457758861665,20.77834424158916,24.431071305545988,2015-06-05
2937123,2015,5,16,6,DL,Delta Air Lines Inc.,2538,N803DN,ATL,DCA,08:20:00,08:18:00,-2.0,19.0,08:37:00,100.0,99.0,78.0,547,09:55:00,2.0,10:00:00,09:57:00,-3.0,0,0,,0.0,0.0,0.0,0.0,0.0,False,Hartsfield-Jackson Atlanta International Airport,Atlanta,GA,33.64044,-84.42694,Ronald Reagan Washington National Airport,Arlington,VA,38.85208,-77.03772,33.119976011717355,30.210617034612437,31.051239640643498,2015-05-16
862757,2015,12,10,4,AA,American Airlines Inc.,1231,N548AA,SJC,DFW,08:28:00,08:19:00,-9.0,20.0,08:39:00,212.0,188.0,163.0,1438,13:22:00,5.0,14:00:00,13:27:00,-33.0,0,0,,0.0,0.0,0.0,0.0,0.0,False,Norman Y. Mineta San José International Airport,San Jose,CA,37.36186,-121.92901,Dallas/Fort Worth International Airport,Dallas-Fort Worth,TX,32.89595,-97.0372,39.416230366492144,23.428438599986716,26.254898054061233,2015-12-10
2539222,2015,8,14,5,WN,Southwest Airlines Co.,3113,N705SW,BWI,PVD,07:45:00,,,,,75.0,,,327,,,09:00:00,,,0,1,A,0.0,0.0,0.0,0.0,0.0,False,Baltimore-Washington International Airport,Baltimore,MD,39.1754,-76.6682,Theodore Francis Green State Airport,Providence,RI,41.724,-71.42822,40.6359274619826,33.50378798707796,34.14837473912919,2015-08-14
1887417,2015,3,9,1,AA,American Airlines Inc.,313,N4XCAA,DFW,DEN,10:20:00,11:55:00,95.0,19.0,12:14:00,126.0,110.0,87.0,641,12:41:00,4.0,11:26:00,12:45:00,79.0,0,0,,0.0,0.0,79.0,0.0,0.0,True,Dallas/Fort Worth International Airport,Dallas-Fort Worth,TX,32.89595,-97.0372,Denver International Airport,Denver,CO,39.85841,-104.667,38.84517284419602,32.11307412900037,34.16857953446386,2015-03-09
4207474,2015,8,21,5,WN,Southwest Airlines Co.,1153,N208WN,DAL,MSY,06:20:00,06:19:00,-1.0,13.0,06:32:00,80.0,77.0,61.0,436,07:33:00,3.0,07:40:00,07:36:00,-4.0,0,0,,0.0,0.0,0.0,0.0,0.0,False,Dallas Love Field,Dallas,TX,32.84711,-96.85177,Louis Armstrong New Orleans International Airport,New Orleans,LA,29.99339,-90.25803,44.57696108812543,27.40365248759958,28.329888771982564,2015-08-21
829967,2015,11,26,4,OO,Skywest Airlines Inc.,4647,N8968E,SLC,GTF,11:00:00,10:50:00,-10.0,17.0,11:07:00,98.0,98.0,74.0,463,12:21:00,7.0,12:38:00,12:28:00,-10.0,0,0,,0.0,0.0,0.0,0.0,0.0,False,Salt Lake City International Airport,Salt Lake City,UT,40.78839,-111.97777,Great Falls International Airport,Great Falls,MT,47.482,-111.37069,31.977162843328877,22.10020910406949,25.83927939520669,2015-11-26
1421505,2015,4,19,7,OO,Skywest Airlines Inc.,3457,N218AG,BUR,PDX,09:25:00,09:12:00,-13.0,16.0,09:28:00,142.0,137.0,117.0,817,11:25:00,4.0,11:47:00,11:29:00,-18.0,0,0,,0.0,0.0,0.0,0.0,0.0,False,Bob Hope Airport (Hollywood Burbank Airport),Burbank,CA,34.20062,-118.3585,Portland International Airport,Portland,OR,45.58872,-122.5975,31.93922388691831,25.929885629040278,27.514503563732802,2015-04-19
5230037,2015,3,10,2,MQ,American Eagle Airlines Inc.,3590,N939MQ,AEX,DFW,18:20:00,18:47:00,27.0,8.0,18:55:00,78.0,64.0,46.0,285,19:41:00,10.0,19:38:00,19:51:00,13.0,0,0,,0.0,0.0,0.0,0.0,0.0,True,Alexandria International Airport,Alexandria,LA,31.32737,-92.54856,Dallas/Fort Worth International Airport,Dallas-Fort Worth,TX,32.89595,-97.0372,37.44437380801017,33.6578947368421,41.398132427843805,2015-03-10
3903426,2015,3,16,1,US,US Airways Inc.,856,N125UW,CLT,DCA,19:45:00,19:43:00,-2.0,16.0,19:59:00,74.0,85.0,63.0,331,21:02:00,6.0,20:59:00,21:08:00,9.0,0,0,,0.0,0.0,0.0,0.0,0.0,True,Charlotte Douglas International Airport,Charlotte,NC,35.21401,-80.94313,Ronald Reagan Washington National Airport,Arlington,VA,38.85208,-77.03772,41.30716478609306,23.564489273907483,29.016408870442316,2015-03-16
4674142,2015,7,7,2,B6,JetBlue Airways,934,N562JB,SJU,MCO,13:46:00,13:45:00,-1.0,8.0,13:53:00,180.0,175.0,156.0,1189,16:29:00,11.0,16:46:00,16:40:00,-6.0,0,0,,0.0,0.0,0.0,0.0,0.0,False,Luis Muñoz Marín International Airport,San Juan,PR,18.43942,-66.00183,Orlando International Airport,Orlando,FL,28.42889,-81.31603,32.47079818299805,36.73020234823882,36.68710966774919,2015-07-07
2408445,2015,4,16,4,US,US Airways Inc.,1827,N949UW,BOS,PHL,11:30:00,11:24:00,-6.0,10.0,11:34:00,94.0,77.0,63.0,280,12:37:00,4.0,13:04:00,12:41:00,-23.0,0,0,,0.0,0.0,0.0,0.0,0.0,False,Gen. Edward Lawrence Logan International Airport,Boston,MA,42.36435,-71.00518,Philadelphia International Airport,Philadelphia,PA,39.87195,-75.24114,35.91662262278969,30.034774751516718,35.44770879049955,2015-04-16
4520943,2015,8,8,6,EV,Atlantic Southeast Airlines,4569,N13161,MTJ,IAH,14:20:00,14:18:00,-2.0,19.0,14:37:00,153.0,169.0,141.0,927,17:58:00,9.0,17:53:00,18:07:00,14.0,0,0,,0.0,0.0,0.0,0.0,0.0,True,Montrose Regional Airport,Montrose,CO,38.50887,-107.89383,George Bush Intercontinental Airport,Houston,TX,29.98047,-95.33972,30.76923076923077,32.34415584415584,38.32142857142857,2015-08-08
4894674,2015,9,8,2,MQ,American Eagle Airlines Inc.,3677,N527MQ,SYR,ORD,18:12:00,,,,,137.0,,,607,,,19:29:00,,,0,1,B,0.0,0.0,0.0,0.0,0.0,False,Syracuse Hancock International Airport,Syracuse,NY,43.11119,-76.10631,Chicago O'Hare International Airport,Chicago,IL,41.9796,-87.90446,28.38801711840228,34.414572864321606,41.640075376884425,2015-09-08
519418,2015,4,12,7,WN,Southwest Airlines Co.,648,N500WR,DEN,BOS,11:25:00,11:22:00,-3.0,15.0,11:37:00,240.0,247.0,225.0,1754,17:22:00,7.0,17:25:00,17:29:00,4.0,0,0,,0.0,0.0,0.0,0.0,0.0,True,Denver International Airport,Denver,CO,39.85841,-104.667,Gen. Edward Lawrence Logan International Airport,Boston,MA,42.36435,-71.00518,41.19048226263038,30.891128832532566,32.91439645351429,2015-04-12
2771974,2015,9,25,5,UA,United Air Lines Inc.,648,N833UA,IAH,DCA,09:05:00,09:03:00,-2.0,19.0,09:22:00,174.0,187.0,165.0,1208,13:07:00,3.0,12:59:00,13:10:00,11.0,0,0,,0.0,0.0,0.0,0.0,0.0,True,George Bush Intercontinental Airport,Houston,TX,29.98047,-95.33972,Ronald Reagan Washington National Airport,Arlington,VA,38.85208,-77.03772,40.8015168255787,30.773569136132657,32.97609654987965,2015-09-25
3400670,2015,4,27,1,DL,Delta Air Lines Inc.,1904,N836DN,FLL,DTW,08:00:00,07:56:00,-4.0,12.0,08:08:00,178.0,179.0,160.0,1127,10:48:00,7.0,10:58:00,10:55:00,-3.0,0,0,,0.0,0.0,0.0,0.0,0.0,False,Fort Lauderdale-Hollywood International Airport,Ft. Lauderdale,FL,26.07258,-80.15275,Detroit Metropolitan Airport,Detroit,MI,42.21206,-83.34884,33.64663696620667,35.856935249475214,36.71108509607622,2015-04-27
3555330,2015,2,2,1,AA,American Airlines Inc.,117,,JFK,LAX,14:45:00,,,,,399.0,,,2475,,,18:24:00,,,0,1,B,0.0,0.0,0.0,0.0,0.0,False,John F. Kennedy International Airport (New York International Airport),New York,NY,40.63975,-73.77893,Los Angeles International Airport,Los Angeles,CA,33.94254,-118.40807,35.68451460916097,35.763532082686105,41.01123192735094,2015-02-02
1101352,2015,9,9,3,B6,JetBlue Airways,1511,N565JB,EWR,RSW,08:00:00,07:59:00,-1.0,25.0,08:24:00,184.0,187.0,155.0,1068,10:59:00,7.0,11:04:00,11:06:00,2.0,0,0,,0.0,0.0,0.0,0.0,0.0,True,Newark Liberty International Airport,Newark,NJ,40.6925,-74.16866,Southwest Florida International Airport,Ft. Myers,FL,26.53617,-81.75517,35.37908265534725,39.0636838304727,39.73129478420263,2015-09-09
2630649,2015,1,31,6,WN,Southwest Airlines Co.,3115,N221WN,MCO,MEM,20:10:00,20:13:00,3.0,10.0,20:23:00,130.0,123.0,107.0,684,21:10:00,6.0,21:20:00,21:16:00,-4.0,0,0,,0.0,0.0,0.0,0.0,0.0,False,Orlando International Airport,Orlando,FL,28.42889,-81.31603,Memphis International Airport,Memphis,TN,35.04242,-89.97667,37.23666900938891,35.90524125248028,37.849247447127716,2015-01-31
2210919,2015,3,14,6,AA,American Airlines Inc.,994,N012AA,MCI,DFW,13:15:00,13:36:00,21.0,10.0,13:46:00,100.0,97.0,79.0,460,15:05:00,8.0,14:55:00,15:13:00,18.0,0,0,,0.0,0.0,0.0,18.0,0.0,True,Kansas City International Airport,Kansas City,MO,39.29761,-94.71391,Dallas/Fort Worth International Airport,Dallas-Fort Worth,TX,32.89595,-97.0372,34.83512220354326,29.168609399361497,32.09748310936224,2015-03-14
1165155,2015,3,16,1,DL,Delta Air Lines Inc.,1624,N952DN,MSP,PHL,19:25:00,19:26:00,1.0,16.0,19:42:00,154.0,143.0,121.0,980,22:43:00,6.0,22:59:00,22:49:00,-10.0,0,0,,0.0,0.0,0.0,0.0,0.0,False,Minneapolis-Saint Paul International Airport,Minneapolis,MN,44.88055,-93.21692,Philadelphia International Airport,Philadelphia,PA,39.87195,-75.24114,33.48377141735865,25.80892890439786,30.049758930236276,2015-03-16
80323,2015,8,9,7,DL,Delta Air Lines Inc.,1905,N395DN,LAX,SEA,10:55:00,11:08:00,13.0,19.0,11:27:00,160.0,149.0,121.0,954,13:28:00,9.0,13:35:00,13:37:00,2.0,0,0,,0.0,0.0,0.0,0.0,0.0,True,Los Angeles International Airport,Los Angeles,CA,33.94254,-118.40807,Seattle-Tacoma International Airport,Seattle,WA,47.44898,-122.30931,40.92041526046242,28.434892858487842,30.50851734223773,2015-08-09
77775,2015,8,20,4,AS,Alaska Airlines Inc.,465,N318AS,LAX,SEA,11:00:00,11:36:00,36.0,23.0,11:59:00,154.0,171.0,132.0,954,14:11:00,16.0,13:34:00,14:27:00,53.0,0,0,,53.0,0.0,0.0,0.0,0.0,True,Los Angeles International Airport,Los Angeles,CA,33.94254,-118.40807,Seattle-Tacoma International Airport,Seattle,WA,47.44898,-122.30931,40.92041526046242,28.434892858487842,30.50851734223773,2015-08-20
2691761,2015,4,15,3,WN,Southwest Airlines Co.,771,N439WN,PHL,MCO,17:25:00,17:25:00,0.0,9.0,17:34:00,150.0,154.0,135.0,861,19:49:00,10.0,19:55:00,19:59:00,4.0,0,0,,0.0,0.0,0.0,0.0,0.0,True,Philadelphia International Airport,Philadelphia,PA,39.87195,-75.24114,Orlando International Airport,Orlando,FL,28.42889,-81.31603,36.76708925947805,31.431943643404466,37.827552113372334,2015-04-15
35103,2015,4,7,2,UA,United Air Lines Inc.,1237,N69838,PDX,ORD,06:30:00,06:21:00,-9.0,9.0,06:30:00,235.0,227.0,205.0,1739,11:55:00,13.0,12:25:00,12:08:00,-17.0,0,0,,0.0,0.0,0.0,0.0,0.0,False,Portland International Airport,Portland,OR,45.58872,-122.5975,Chicago O'Hare International Airport,Chicago,IL,41.9796,-87.90446,32.088775618562174,24.357336686743,27.290224369581043,2015-04-07
4217270,2015,9,16,3,WN,Southwest Airlines Co.,3211,N520SW,DAL,AUS,21:35:00,21:40:00,5.0,8.0,21:48:00,50.0,45.0,32.0,189,22:20:00,5.0,22:25:00,22:25:00,0.0,0,0,,0.0,0.0,0.0,0.0,0.0,False,Dallas Love Field,Dallas,TX,32.84711,-96.85177,Austin-Bergstrom International Airport,Austin,TX,30.19453,-97.66987,44.57696108812543,27.40365248759958,28.329888771982564,2015-09-16
4368009,2015,8,24,1,WN,Southwest Airlines Co.,692,N8618N,SEA,BNA,11:50:00,12:04:00,14.0,18.0,12:22:00,260.0,248.0,223.0,1978,18:05:00,7.0,18:10:00,18:12:00,2.0,0,0,,0.0,0.0,0.0,0.0,0.0,True,Seattle-Tacoma International Airport,Seattle,WA,47.44898,-122.30931,Nashville International Airport,Nashville,TN,36.12448,-86.67818,39.265457758861665,20.77834424158916,24.431071305545988,2015-08-24
2398283,2015,5,29,5,B6,JetBlue Airways,1189,N298JB,BOS,DCA,20:59:00,21:37:00,38.0,14.0,21:51:00,94.0,86.0,64.0,399,22:55:00,8.0,22:33:00,23:03:00,30.0,0,0,,0.0,0.0,8.0,22.0,0.0,True,Gen. Edward Lawrence Logan International Airport,Boston,MA,42.36435,-71.00518,Ronald Reagan Washington National Airport,Arlington,VA,38.85208,-77.03772,35.91662262278969,30.034774751516718,35.44770879049955,2015-05-29
423325,2015,8,28,5,F9,Frontier Airlines Inc.,787,N953FR,DEN,PDX,07:45:00,07:39:00,-6.0,8.0,07:47:00,154.0,149.0,135.0,991,09:02:00,6.0,09:19:00,09:08:00,-11.0,0,0,,0.0,0.0,0.0,0.0,0.0,False,Denver International Airport,Denver,CO,39.85841,-104.667,Portland International Airport,Portland,OR,45.58872,-122.5975,41.19048226263038,30.891128832532566,32.91439645351429,2015-08-28
4928925,2015,8,16,7,EV,Atlantic Southeast Airlines,4716,N23139,ATW,ORD,10:40:00,10:35:00,-5.0,10.0,10:45:00,60.0,54.0,34.0,160,11:19:00,10.0,11:40:00,11:29:00,-11.0,0,0,,0.0,0.0,0.0,0.0,0.0,False,Appleton International Airport,Appleton,WI,44.25741,-88.51948,Chicago O'Hare International Airport,Chicago,IL,41.9796,-87.90446,37.78089887640449,23.79182156133829,32.69702602230483,2015-08-16
3460816,2015,3,1,7,WN,Southwest Airlines Co.,188,N266WN,SAT,BNA,14:05:00,14:00:00,-5.0,6.0,14:06:00,125.0,111.0,99.0,822,15:45:00,6.0,16:10:00,15:51:00,-19.0,0,0,,0.0,0.0,0.0,0.0,0.0,False,San Antonio International Airport,San Antonio,TX,29.53369,-98.46978,Nashville International Airport,Nashville,TN,36.12448,-86.67818,31.85175238351014,29.948566610455313,30.89449831365936,2015-03-01
2917913,2015,11,6,5,EV,Atlantic Southeast Airlines,5174,N135EV,ATL,IAH,07:30:00,07:38:00,8.0,15.0,07:53:00,131.0,121.0,103.0,689,08:36:00,3.0,08:41:00,08:39:00,-2.0,0,0,,0.0,0.0,0.0,0.0,0.0,False,Hartsfield-Jackson Atlanta International Airport,Atlanta,GA,33.64044,-84.42694,George Bush Intercontinental Airport,Houston,TX,29.98047,-95.33972,33.119976011717355,30.210617034612437,31.051239640643498,2015-11-06
4389582,2015,2,4,3,WN,Southwest Airlines Co.,4465,N735SA,TUL,STL,17:05:00,17:02:00,-3.0,19.0,17:21:00,70.0,80.0,56.0,351,18:17:00,5.0,18:15:00,18:22:00,7.0,0,0,,0.0,0.0,0.0,0.0,0.0,True,Tulsa International Airport,Tulsa,OK,36.19837,-95.88824,St. Louis International Airport at Lambert Field,St Louis,MO,38.74769,-90.35999,33.3715103793844,30.817245817245816,34.842556842556846,2015-02-04
4880389,2015,3,9,1,WN,Southwest Airlines Co.,187,N8615E,PVD,MDW,17:05:00,17:01:00,-4.0,9.0,17:10:00,150.0,150.0,136.0,842,18:26:00,5.0,18:35:00,18:31:00,-4.0,0,0,,0.0,0.0,0.0,0.0,0.0,False,Theodore Francis Green State Airport,Providence,RI,41.724,-71.42822,Chicago Midway International Airport,Chicago,IL,41.78598,-87.75242,29.815518176885515,30.029420685471642,33.889899909008186,2015-03-09
4372905,2015,3,30,1,WN,Southwest Airlines Co.,112,N7712G,SEA,MKE,10:25:00,10:34:00,9.0,22.0,10:56:00,220.0,217.0,189.0,1694,16:05:00,6.0,16:05:00,16:11:00,6.0,0,0,,0.0,0.0,0.0,0.0,0.0,True,Seattle-Tacoma International Airport,Seattle,WA,47.44898,-122.30931,General Mitchell International Airport,Milwaukee,WI,42.94722,-87.89658,39.265457758861665,20.77834424158916,24.431071305545988,2015-03-30
3393605,2015,3,7,6,WN,Southwest Airlines Co.,4874,N748SW,FLL,BWI,13:50:00,13:59:00,9.0,18.0,14:17:00,155.0,146.0,121.0,925,16:18:00,7.0,16:25:00,16:25:00,0.0,0,0,,0.0,0.0,0.0,0.0,0.0,False,Fort Lauderdale-Hollywood International Airport,Ft. Lauderdale,FL,26.07258,-80.15275,Baltimore-Washington International Airport,Baltimore,MD,39.1754,-76.6682,33.64663696620667,35.856935249475214,36.71108509607622,2015-03-07
1093755,2015,11,2,1,B6,JetBlue Airways,643,N556JB,EWR,PBI,07:30:00,07:23:00,-7.0,13.0,07:36:00,172.0,160.0,144.0,1023,10:00:00,3.0,10:22:00,10:03:00,-19.0,0,0,,0.0,0.0,0.0,0.0,0.0,False,Newark Liberty International Airport,Newark,NJ,40.6925,-74.16866,Palm Beach International Airport,West Palm Beach,FL,26.68316,-80.09559,35.37908265534725,39.0636838304727,39.73129478420263,2015-11-02
4093136,2015,1,16,5,F9,Frontier Airlines Inc.,1292,N921FR,CVG,MCO,07:35:00,07:29:00,-6.0,21.0,07:50:00,130.0,134.0,100.0,757,09:30:00,13.0,09:45:00,09:43:00,-2.0,0,0,,0.0,0.0,0.0,0.0,0.0,False,Cincinnati/Northern Kentucky International Airport,Covington,KY,39.04614,-84.66217,Orlando International Airport,Orlando,FL,28.42889,-81.31603,34.89591133742699,32.77424892703863,38.70844062947067,2015-01-16
1600717,2015,3,7,6,AA,American Airlines Inc.,1459,N3LGAA,ORD,SFO,18:15:00,18:11:00,-4.0,12.0,18:23:00,285.0,266.0,249.0,1846,20:32:00,5.0,21:00:00,20:37:00,-23.0,0,0,,0.0,0.0,0.0,0.0,0.0,False,Chicago O'Hare International Airport,Chicago,IL,41.9796,-87.90446,San Francisco International Airport,San Francisco,CA,37.619,-122.37484,39.62481286116047,37.05203873553376,39.5671030446412,2015-03-07
1002071,2015,5,14,4,WN,Southwest Airlines Co.,940,N7738A,LAS,IND,07:45:00,07:45:00,0.0,11.0,07:56:00,215.0,211.0,187.0,1590,14:03:00,13.0,14:20:00,14:16:00,-4.0,0,0,,0.0,0.0,0.0,0.0,0.0,False,McCarran International Airport,Las Vegas,NV,36.08036,-115.15233,Indianapolis International Airport,Indianapolis,IN,39.71733,-86.29438,39.71812796119566,30.74919182562338,31.755184604041816,2015-05-14
3120281,2015,6,3,3,WN,Southwest Airlines Co.,609,N478WN,ATL,CAK,10:25:00,10:24:00,-1.0,12.0,10:36:00,105.0,88.0,73.0,528,11:49:00,3.0,12:10:00,11:52:00,-18.0,0,0,,0.0,0.0,0.0,0.0,0.0,False,Hartsfield-Jackson Atlanta International Airport,Atlanta,GA,33.64044,-84.42694,Akron-Canton Regional Airport,Akron,OH,40.91631,-81.44247,33.119976011717355,30.210617034612437,31.051239640643498,2015-06-03
2043967,2015,6,22,1,MQ,American Eagle Airlines Inc.,3166,N507MQ,DFW,COU,12:14:00,12:45:00,31.0,15.0,13:00:00,102.0,85.0,68.0,489,14:08:00,2.0,13:56:00,14:10:00,14.0,0,0,,0.0,0.0,0.0,0.0,0.0,True,Dallas/Fort Worth International Airport,Dallas-Fort Worth,TX,32.89595,-97.0372,Columbia Regional Airport,Columbia,MO,38.81809,-92.21963,38.84517284419602,32.11307412900037,34.16857953446386,2015-06-22
1937491,2015,5,29,5,AA,American Airlines Inc.,1459,N028AA,DFW,MCI,18:40:00,19:42:00,62.0,18.0,20:00:00,103.0,91.0,66.0,460,21:06:00,7.0,20:23:00,21:13:00,50.0,0,0,,0.0,0.0,49.0,1.0,0.0,True,Dallas/Fort Worth International Airport,Dallas-Fort Worth,TX,32.89595,-97.0372,Kansas City International Airport,Kansas City,MO,39.29761,-94.71391,38.84517284419602,32.11307412900037,34.16857953446386,2015-05-29
682420,2015,12,11,5,WN,Southwest Airlines Co.,2803,N249WN,SAN,PHX,12:25:00,12:29:00,4.0,10.0,12:39:00,70.0,63.0,49.0,304,14:28:00,4.0,14:35:00,14:32:00,-3.0,0,0,,0.0,0.0,0.0,0.0,0.0,False,San Diego International Airport (Lindbergh Field),San Diego,CA,32.73356,-117.18966,Phoenix Sky Harbor International Airport,Phoenix,AZ,33.43417,-112.00806,35.70156821969319,27.828645521643725,29.56233792140435,2015-12-11
1831755,2015,9,13,7,EV,Atlantic Southeast Airlines,5987,N12921,ORD,EVV,08:34:00,08:26:00,-8.0,22.0,08:48:00,80.0,64.0,37.0,272,09:25:00,5.0,09:54:00,09:30:00,-24.0,0,0,,0.0,0.0,0.0,0.0,0.0,False,Chicago O'Hare International Airport,Chicago,IL,41.9796,-87.90446,Evansville Regional Airport,Evansville,IN,38.03799,-87.53063,39.62481286116047,37.05203873553376,39.5671030446412,2015-09-13
4386567,2015,9,5,6,OO,Skywest Airlines Inc.,6538,N916SW,TUL,DEN,16:10:00,16:01:00,-9.0,17.0,16:18:00,109.0,115.0,90.0,541,16:48:00,8.0,16:59:00,16:56:00,-3.0,0,0,,0.0,0.0,0.0,0.0,0.0,False,Tulsa International Airport,Tulsa,OK,36.19837,-95.88824,Denver International Airport,Denver,CO,39.85841,-104.667,33.3715103793844,30.817245817245816,34.842556842556846,2015-09-05
4489239,2015,7,29,3,AA,American Airlines Inc.,150,N4YDAA,ELP,DFW,10:05:00,10:21:00,16.0,16.0,10:37:00,109.0,103.0,78.0,551,12:55:00,9.0,12:54:00,13:04:00,10.0,0,0,,0.0,0.0,0.0,0.0,0.0,True,El Paso International Airport,El Paso,TX,31.80667,-106.37781,Dallas/Fort Worth International Airport,Dallas-Fort Worth,TX,32.89595,-97.0372,35.98396257935182,27.90761374187558,30.245589600742804,2015-07-29
5224761,2015,4,25,6,EV,Atlantic Southeast Airlines,2558,N901EV,SPS,DFW,10:16:00,10:15:00,-1.0,12.0,10:27:00,49.0,50.0,23.0,113,10:50:00,15.0,11:05:00,11:05:00,0.0,0,0,,0.0,0.0,0.0,0.0,0.0,False,Wichita Falls Municipal Airport/Sheppard AFB,Wichita Falls,TX,33.9888,-98.49189,Dallas/Fort Worth International Airport,Dallas-Fort Worth,TX,32.89595,-97.0372,33.38735818476499,32.616504854368934,38.86407766990291,2015-04-25
813297,2015,2,24,2,DL,Delta Air Lines Inc.,522,N310NW,SLC,CLT,17:05:00,17:00:00,-5.0,15.0,17:15:00,225.0,219.0,198.0,1727,22:33:00,6.0,22:50:00,22:39:00,-11.0,0,0,,0.0,0.0,0.0,0.0,0.0,False,Salt Lake City International Airport,Salt Lake City,UT,40.78839,-111.97777,Charlotte Douglas International Airport,Charlotte,NC,35.21401,-80.94313,31.977162843328877,22.10020910406949,25.83927939520669,2015-02-24
222611,2015,3,21,6,AA,American Airlines Inc.,1530,N3FMAA,LAX,IAD,23:00:00,22:58:00,-2.0,36.0,23:34:00,290.0,299.0,259.0,2288,06:53:00,4.0,06:50:00,06:57:00,7.0,0,0,,0.0,0.0,0.0,0.0,0.0,True,Los Angeles International Airport,Los Angeles,CA,33.94254,-118.40807,Washington Dulles International Airport,Chantilly,VA,38.94453,-77.45581,40.92041526046242,28.434892858487842,30.50851734223773,2015-03-21
893722,2015,7,8,3,AA,American Airlines Inc.,1029,N3DBAA,LAS,ORD,12:01:00,12:18:00,17.0,9.0,12:27:00,232.0,218.0,189.0,1514,17:36:00,20.0,17:53:00,17:56:00,3.0,0,0,,0.0,0.0,0.0,0.0,0.0,True,McCarran International Airport,Las Vegas,NV,36.08036,-115.15233,Chicago O'Hare International Airport,Chicago,IL,41.9796,-87.90446,39.71812796119566,30.74919182562338,31.755184604041816,2015-07-08
1881445,2015,6,27,6,DL,Delta Air Lines Inc.,844,N330NW,DFW,SLC,19:15:00,19:29:00,14.0,13.0,19:42:00,161.0,141.0,124.0,989,20:46:00,4.0,20:56:00,20:50:00,-6.0,0,0,,0.0,0.0,0.0,0.0,0.0,False,Dallas/Fort Worth International Airport,Dallas-Fort Worth,TX,32.89595,-97.0372,Salt Lake City International Airport,Salt Lake City,UT,40.78839,-111.97777,38.84517284419602,32.11307412900037,34.16857953446386,2015-06-27
499704,2015,9,11,5,WN,Southwest Airlines Co.,2279,N8604K,DEN,SMF,21:25:00,21:33:00,8.0,11.0,21:44:00,150.0,134.0,118.0,909,22:42:00,5.0,22:55:00,22:47:00,-8.0,0,0,,0.0,0.0,0.0,0.0,0.0,False,Denver International Airport,Denver,CO,39.85841,-104.667,Sacramento International Airport,Sacramento,CA,38.69542,-121.59077,41.19048226263038,30.891128832532566,32.91439645351429,2015-09-11
4368648,2015,8,12,3,AA,American Airlines Inc.,1812,N545UW,SEA,CLT,13:05:00,13:31:00,26.0,26.0,13:57:00,307.0,298.0,259.0,2279,21:16:00,13.0,21:12:00,21:29:00,17.0,0,0,,0.0,0.0,6.0,11.0,0.0,True,Seattle-Tacoma International Airport,Seattle,WA,47.44898,-122.30931,Charlotte Douglas International Airport,Charlotte,NC,35.21401,-80.94313,39.265457758861665,20.77834424158916,24.431071305545988,2015-08-12
2999292,2015,6,10,3,DL,Delta Air Lines Inc.,2015,N940DL,ATL,IAD,19:26:00,19:25:00,-1.0,18.0,19:43:00,115.0,108.0,82.0,534,21:05:00,8.0,21:21:00,21:13:00,-8.0,0,0,,0.0,0.0,0.0,0.0,0.0,False,Hartsfield-Jackson Atlanta International Airport,Atlanta,GA,33.64044,-84.42694,Washington Dulles International Airport,Chantilly,VA,38.94453,-77.45581,33.119976011717355,30.210617034612437,31.051239640643498,2015-06-10
4340813,2015,5,9,6,AS,Alaska Airlines Inc.,248,N402AS,SEA,SAN,08:45:00,09:01:00,16.0,12.0,09:13:00,158.0,145.0,130.0,1050,11:23:00,3.0,11:23:00,11:26:00,3.0,0,0,,0.0,0.0,0.0,0.0,0.0,True,Seattle-Tacoma International Airport,Seattle,WA,47.44898,-122.30931,San Diego International Airport (Lindbergh Field),San Diego,CA,32.73356,-117.18966,39.265457758861665,20.77834424158916,24.431071305545988,2015-05-09
3028487,2015,7,1,3,DL,Delta Air Lines Inc.,2400,N347NB,ATL,OMA,10:50:00,10:46:00,-4.0,11.0,10:57:00,139.0,130.0,114.0,821,11:51:00,5.0,12:09:00,11:56:00,-13.0,0,0,,0.0,0.0,0.0,0.0,0.0,False,Hartsfield-Jackson Atlanta International Airport,Atlanta,GA,33.64044,-84.42694,Eppley Airfield,Omaha,NE,41.30252,-95.89417,33.119976011717355,30.210617034612437,31.051239640643498,2015-07-01
564625,2015,12,17,4,WN,Southwest Airlines Co.,3214,N956WN,DEN,MDW,05:30:00,05:27:00,-3.0,11.0,05:38:00,145.0,130.0,112.0,895,08:30:00,7.0,08:55:00,08:37:00,-18.0,0,0,,0.0,0.0,0.0,0.0,0.0,False,Denver International Airport,Denver,CO,39.85841,-104.667,Chicago Midway International Airport,Chicago,IL,41.78598,-87.75242,41.19048226263038,30.891128832532566,32.91439645351429,2015-12-17
5288056,2015,6,14,7,EV,Atlantic Southeast Airlines,5046,N166PQ,OAJ,ATL,07:15:00,07:10:00,-5.0,12.0,07:22:00,89.0,88.0,60.0,399,08:22:00,16.0,08:44:00,08:38:00,-6.0,0,0,,0.0,0.0,0.0,0.0,0.0,False,Albert J. Ellis Airport,Jacksonville,NC,34.82916,-77.61214,Hartsfield-Jackson Atlanta International Airport,Atlanta,GA,33.64044,-84.42694,36.61971830985916,35.94711538461539,42.33894230769231,2015-06-14
1174660,2015,6,13,6,DL,Delta Air Lines Inc.,2581,N951DN,MSP,STL,13:05:00,13:06:00,1.0,16.0,13:22:00,86.0,86.0,64.0,448,14:26:00,6.0,14:31:00,14:32:00,1.0,0,0,,0.0,0.0,0.0,0.0,0.0,True,Minneapolis-Saint Paul International Airport,Minneapolis,MN,44.88055,-93.21692,St. Louis International Airport at Lambert Field,St Louis,MO,38.74769,-90.35999,33.48377141735865,25.80892890439786,30.049758930236276,2015-06-13
4884259,2015,11,6,5,WN,Southwest Airlines Co.,2787,N8653A,ALB,MCO,07:30:00,08:12:00,42.0,9.0,08:21:00,190.0,168.0,151.0,1073,10:52:00,8.0,10:40:00,11:00:00,20.0,0,0,,0.0,0.0,20.0,0.0,0.0,True,Albany International Airport,Albany,NY,42.74812,-73.80298,Orlando International Airport,Orlando,FL,28.42889,-81.31603,26.893685480627425,31.968594217347956,34.900299102691925,2015-11-06
1241883,2015,12,19,6,VX,Virgin America,740,N855VA,SFO,SEA,07:15:00,07:20:00,5.0,9.0,07:29:00,125.0,110.0,93.0,679,09:02:00,8.0,09:20:00,09:10:00,-10.0,0,0,,0.0,0.0,0.0,0.0,0.0,False,San Francisco International Airport,San Francisco,CA,37.619,-122.37484,Seattle-Tacoma International Airport,Seattle,WA,47.44898,-122.30931,37.954705151072915,32.84568142979208,33.873825121048135,2015-12-19
3316660,2015,2,12,4,WN,Southwest Airlines Co.,766,N8324A,STL,MDW,19:55:00,20:18:00,23.0,5.0,20:23:00,65.0,59.0,42.0,251,21:05:00,12.0,21:00:00,21:17:00,17.0,0,0,,0.0,0.0,10.0,7.0,0.0,True,St. Louis International Airport at Lambert Field,St Louis,MO,38.74769,-90.35999,Chicago Midway International Airport,Chicago,IL,41.78598,-87.75242,35.779230458020145,31.053561863952865,32.371719335832886,2015-02-12
2318461,2015,9,13,7,EV,Atlantic Southeast Airlines,4907,N131EV,DTW,MHT,14:12:00,14:12:00,0.0,13.0,14:25:00,108.0,98.0,82.0,610,15:47:00,3.0,16:00:00,15:50:00,-10.0,0,0,,0.0,0.0,0.0,0.0,0.0,False,Detroit Metropolitan Airport,Detroit,MI,42.21206,-83.34884,Manchester-Boston Regional Airport,Manchester,NH,42.93452,-71.43706,33.438709677419354,31.526032909787492,35.202447562084835,2015-09-13
515255,2015,5,10,7,DL,Delta Air Lines Inc.,1610,N371DA,DEN,DTW,06:10:00,06:12:00,2.0,68.0,07:20:00,167.0,207.0,132.0,1123,11:32:00,7.0,10:57:00,11:39:00,42.0,0,0,,42.0,0.0,0.0,0.0,0.0,True,Denver International Airport,Denver,CO,39.85841,-104.667,Detroit Metropolitan Airport,Detroit,MI,42.21206,-83.34884,41.19048226263038,30.891128832532566,32.91439645351429,2015-05-10
3899382,2015,9,8,2,AA,American Airlines Inc.,747,N938UW,CLT,MCO,20:15:00,20:38:00,23.0,12.0,20:50:00,96.0,88.0,66.0,468,21:56:00,10.0,21:51:00,22:06:00,15.0,0,0,,0.0,0.0,15.0,0.0,0.0,True,Charlotte Douglas International Airport,Charlotte,NC,35.21401,-80.94313,Orlando International Airport,Orlando,FL,28.42889,-81.31603,41.30716478609306,23.564489273907483,29.016408870442316,2015-09-08
3145318,2015,8,2,7,DL,Delta Air Lines Inc.,1307,N997DL,ATL,RIC,15:38:00,15:35:00,-3.0,22.0,15:57:00,101.0,90.0,64.0,481,17:01:00,4.0,17:19:00,17:05:00,-14.0,0,0,,0.0,0.0,0.0,0.0,0.0,False,Hartsfield-Jackson Atlanta International Airport,Atlanta,GA,33.64044,-84.42694,Richmond International Airport,Richmond,VA,37.50517,-77.31967,33.119976011717355,30.210617034612437,31.051239640643498,2015-08-02
5317625,2015,12,24,4,UA,United Air Lines Inc.,1162,N68801,BQN,EWR,02:55:00,05:27:00,152.0,13.0,05:40:00,240.0,228.0,208.0,1585,08:08:00,7.0,05:55:00,08:15:00,140.0,0,0,,0.0,0.0,0.0,140.0,0.0,True,Rafael Hernández Airport,Aguadilla,PR,18.49486,-67.12944,Newark Liberty International Airport,Newark,NJ,40.6925,-74.16866,33.804914370811616,44.24889867841409,41.04625550660793,2015-12-24
1800147,2015,11,24,2,EV,Atlantic Southeast Airlines,5941,N14558,ORD,AVP,13:52:00,13:49:00,-3.0,24.0,14:13:00,106.0,109.0,83.0,632,16:36:00,2.0,16:38:00,16:38:00,0.0,0,0,,0.0,0.0,0.0,0.0,0.0,False,Chicago O'Hare International Airport,Chicago,IL,41.9796,-87.90446,Wilkes-Barre/Scranton International Airport,Wilkes-Barre/Scranton,PA,41.33815,-75.72427,39.62481286116047,37.05203873553376,39.5671030446412,2015-11-24
1347585,2015,4,15,3,UA,United Air Lines Inc.,1268,N73278,SFO,IAD,10:45:00,10:42:00,-3.0,21.0,11:03:00,317.0,321.0,294.0,2419,18:57:00,6.0,19:02:00,19:03:00,1.0,0,0,,0.0,0.0,0.0,0.0,0.0,True,San Francisco International Airport,San Francisco,CA,37.619,-122.37484,Washington Dulles International Airport,Chantilly,VA,38.94453,-77.45581,37.954705151072915,32.84568142979208,33.873825121048135,2015-04-15
1926785,2015,6,2,2,AA,American Airlines Inc.,1540,N3JUAA,DFW,FLL,15:20:00,15:13:00,-7.0,20.0,15:33:00,172.0,187.0,162.0,1119,19:15:00,5.0,19:12:00,19:20:00,8.0,0,0,,0.0,0.0,0.0,0.0,0.0,True,Dallas/Fort Worth International Airport,Dallas-Fort Worth,TX,32.89595,-97.0372,Fort Lauderdale-Hollywood International Airport,Ft. Lauderdale,FL,26.07258,-80.15275,38.84517284419602,32.11307412900037,34.16857953446386,2015-06-02
2445685,2015,2,9,1,US,US Airways Inc.,2149,,BOS,LGA,13:00:00,,,,,86.0,,,184,,,14:26:00,,,0,1,B,0.0,0.0,0.0,0.0,0.0,False,Gen. Edward Lawrence Logan International Airport,Boston,MA,42.36435,-71.00518,LaGuardia Airport (Marine Air Terminal),New York,NY,40.77724,-73.87261,35.91662262278969,30.034774751516718,35.44770879049955,2015-02-09
915903,2015,11,17,2,DL,Delta Air Lines Inc.,2202,N674DL,LAS,ATL,15:20:00,15:22:00,2.0,24.0,15:46:00,226.0,239.0,204.0,1747,22:10:00,11.0,22:06:00,22:21:00,15.0,0,0,,15.0,0.0,0.0,0.0,0.0,True,McCarran International Airport,Las Vegas,NV,36.08036,-115.15233,Hartsfield-Jackson Atlanta International Airport,Atlanta,GA,33.64044,-84.42694,39.71812796119566,30.74919182562338,31.755184604041816,2015-11-17
748896,2015,12,14,1,DL,Delta Air Lines Inc.,1194,N320US,SLC,PDX,15:00:00,15:00:00,0.0,39.0,15:39:00,122.0,126.0,85.0,630,16:04:00,2.0,16:02:00,16:06:00,4.0,0,0,,0.0,0.0,0.0,0.0,0.0,True,Salt Lake City International Airport,Salt Lake City,UT,40.78839,-111.97777,Portland International Airport,Portland,OR,45.58872,-122.5975,31.977162843328877,22.10020910406949,25.83927939520669,2015-12-14
1422587,2015,3,14,6,WN,Southwest Airlines Co.,1565,N456WN,BUR,PHX,08:25:00,08:22:00,-3.0,9.0,08:31:00,80.0,71.0,56.0,369,09:27:00,6.0,09:45:00,09:33:00,-12.0,0,0,,0.0,0.0,0.0,0.0,0.0,False,Bob Hope Airport (Hollywood Burbank Airport),Burbank,CA,34.20062,-118.3585,Phoenix Sky Harbor International Airport,Phoenix,AZ,33.43417,-112.00806,31.93922388691831,25.929885629040278,27.514503563732802,2015-03-14
2166051,2015,5,9,6,AA,American Airlines Inc.,58,N5FDAA,KOA,LAX,13:06:00,13:03:00,-3.0,12.0,13:15:00,314.0,311.0,283.0,2504,20:58:00,16.0,21:20:00,21:14:00,-6.0,0,0,,0.0,0.0,0.0,0.0,0.0,False,Kona International Airport at Keahole,Kailua/Kona,HI,19.73877,-156.04563,Los Angeles International Airport,Los Angeles,CA,33.94254,-118.40807,33.44430448083499,15.271993543179985,19.435835351089587,2015-05-09
3419700,2015,4,23,4,WN,Southwest Airlines Co.,857,N472WN,FLL,HOU,06:40:00,06:32:00,-8.0,10.0,06:42:00,165.0,177.0,161.0,957,08:23:00,6.0,08:25:00,08:29:00,4.0,0,0,,0.0,0.0,0.0,0.0,0.0,True,Fort Lauderdale-Hollywood International Airport,Ft. Lauderdale,FL,26.07258,-80.15275,William P. Hobby Airport,Houston,TX,29.64542,-95.27889,33.64663696620667,35.856935249475214,36.71108509607622,2015-04-23
194385,2015,5,14,4,DL,Delta Air Lines Inc.,1061,N3747D,LAX,MCO,10:20:00,10:50:00,30.0,28.0,11:18:00,288.0,302.0,258.0,2218,18:36:00,16.0,18:08:00,18:52:00,44.0,0,0,,14.0,0.0,30.0,0.0,0.0,True,Los Angeles International Airport,Los Angeles,CA,33.94254,-118.40807,Orlando International Airport,Orlando,FL,28.42889,-81.31603,40.92041526046242,28.434892858487842,30.50851734223773,2015-05-14
510007,2015,3,4,3,UA,United Air Lines Inc.,1660,N14237,DEN,TPA,16:00:00,15:59:00,-1.0,15.0,16:14:00,204.0,195.0,176.0,1506,21:10:00,4.0,21:24:00,21:14:00,-10.0,0,0,,0.0,0.0,0.0,0.0,0.0,False,Denver International Airport,Denver,CO,39.85841,-104.667,Tampa International Airport,Tampa,FL,27.97547,-82.53325,41.19048226263038,30.891128832532566,32.91439645351429,2015-03-04
3310756,2015,5,28,4,WN,Southwest Airlines Co.,605,N7733B,STL,SAT,10:15:00,10:44:00,29.0,9.0,10:53:00,135.0,127.0,114.0,786,12:47:00,4.0,12:30:00,12:51:00,21.0,0,0,,0.0,0.0,0.0,21.0,0.0,True,St. Louis International Airport at Lambert Field,St Louis,MO,38.74769,-90.35999,San Antonio International Airport,San Antonio,TX,29.53369,-98.46978,35.779230458020145,31.053561863952865,32.371719335832886,2015-05-28
2685203,2015,9,23,3,AA,American Airlines Inc.,1825,N956UW,PHL,IAH,18:00:00,17:54:00,-6.0,34.0,18:28:00,228.0,214.0,176.0,1325,20:24:00,4.0,20:48:00,20:28:00,-20.0,0,0,,0.0,0.0,0.0,0.0,0.0,False,Philadelphia International Airport,Philadelphia,PA,39.87195,-75.24114,George Bush Intercontinental Airport,Houston,TX,29.98047,-95.33972,36.76708925947805,31.431943643404466,37.827552113372334,2015-09-23
1199797,2015,7,6,1,DL,Delta Air Lines Inc.,1796,N911DE,MSP,LGA,10:00:00,10:28:00,28.0,15.0,10:43:00,161.0,165.0,142.0,1020,14:05:00,8.0,13:41:00,14:13:00,32.0,0,0,,4.0,0.0,28.0,0.0,0.0,True,Minneapolis-Saint Paul International Airport,Minneapolis,MN,44.88055,-93.21692,LaGuardia Airport (Marine Air Terminal),New York,NY,40.77724,-73.87261,33.48377141735865,25.80892890439786,30.049758930236276,2015-07-06
